시작일,종료일,행사명,행사주소,연락처,위도,경도
20210306,20211030,가무악극으로 만나는 토요 상설공연,충청남도 부여군 규암면 백제문로 388,041-832-5765,36.3048428766,126.8997016069
20210320,20210630,가산수피아 '봄의 정원',경상북도 칠곡군 가산면 학하들안2길 105,054-971-9861,36.0861545517,128.4850691574
20210116,20211231,가족끼리 빙어체험 2021,경기도 양평군 단월면 곱다니길 55-2 수미마을 방문객센터,031-775-5205,37.5145504080,127.6574135888
20210301,20210606,가족끼리딸기 캠피닉,경기도 양평군 단월면 곱다니길 55-2,031-775-5205,37.5144948588,127.6573663730
20210225,20210228,가족오페라 <마술피리> 2021,대구광역시 북구 호암로 15,053-666-6170,35.8835072863,128.5922570230
20201017,20201017,"강동구 청소년 민주주의 축제 ""놀면 뭐하니? 한 번 더 민주!"" 2020",온라인개최,-,,
20200921,20200927,강동북페스티벌2020,온라인개최,"강일 427-4004, 성내 471-0044, 해공 478-9656, 암사 429-0476, 천호 488-7223",37.5512675743,127.1573829418
20201005,20201011,강동선사문화축제 2020,온라인개최,02-3425-5245,,
20210610,20210617,강릉 단오제,강원도 강릉시 단오장길 1,033-641-1593,37.7482134974,128.8950169869
20201112,20201114,강릉 문화재야행 2020,강원도 강릉시 임영로131번길 6,033-823-3213,37.7532267491,128.8920698750
20201105,20201107,강릉국제영화제(GIFF) 2020,강원도 강릉시 경강로 2120,033-647-6807,37.7557293666,128.8986969781
20210806,20210808,강원그린박람회,강원도 춘천시 평화로 26,033-260-9320,37.8813589518,127.7184944906
20201008,20201013,강진청자축제 2020,전라남도 강진군 대구면 청자촌길 33,061-430-3352,34.5075226164,126.8011114048
20201117,20201122,강화 문화재 야행 2020,온라인개최,032-930-3569,37.7487881453,126.4855748369
20201117,20201117,개천절 대제전 2020,서울특별시 종로구 인왕산로 22,02-736-6375,37.5758807095,126.9657719166
20201031,20201108,거제섬꽃축제 2020,경상남도 거제시 거제면 거제남서로 3577,055-639-6443,34.8565698127,128.5795665696
20201213,20210214,거창 크리스마스트리문화축제 2021,경상남도 거창군 거창읍 중앙로 103,070-8809-9182,35.6866949586,127.9095393091
20210730,20210807,거창국제연극제,경상남도 거창군 위천면 은하리길 98-11,055-940-8460,35.7618433910,127.8319274874
20201114,20201120,건강서울페스티벌 2020,온라인개최,070-7575-2351~2,37.4826644710,127.0053765000
20210129,20210131,겨울공주 온라인 군밤축제 2021,온라인개최,041-840-8111,36.4666363013,127.1075869625
20201009,20201009,경기 다독다독 온라인 축제 2020,온라인개최,02-502-5953,,
20210807,20210911,경기인형극제 in Suwon,경기도 수원시 권선구 서둔로 166,070-4681-0675,37.2668308007,126.9850066316
20210520,20210522,경기정원문화박람회,경기도 의왕시 왕송못동로 307,070-7411-2022,37.3071811142,126.9531611746
20210701,20210710,경남 고성 옥수수축제,경상남도 고성군 동해면 봉암3길 5,055-672-5155,35.0096327799,128.3993560025
20211001,20211107,경남고성공룡세계엑스포,경상남도 고성군 회화면 당항만로 1116,055)670-3816,35.0581190364,128.4007962584
20210506,20210527,경복궁 별빛야행,서울특별시 종로구 사직로 161,02-3210-4806,37.5788944508,126.9770319156
20210415,20210630,경복궁 생과방,서울특별시 종로구 사직로 161 경복궁,"02-3210-4807, 02-3210-3506",37.5788944508,126.9770319156
20210501,20210529,경복궁 시식공감,서울특별시 종로구 사직로 161,02-3210-4806,37.5816246501,126.9748959222
20210401,20210530,경복궁 야간 특별관람,서울특별시 종로구 사직로 161,02-3700-3900~1,37.5816246501,126.9748959222
20201109,20201113,경북사과 온라인 홍보행사 2020,온라인개최,"053-743-2882~5, 053-961-8969",,
20201009,20201018,경북영주 풍기인삼축제 2020,온라인개최,054-635-0020,36.8719154882,128.5167077783
20210612,20210614,경산자인단오제,경상북도 경산시 자인면 계정길 68,053-856-5765,35.8182688829,128.8200110253
20210316,20210327,경상남도연극제,경상남도 통영시 남망공원길 29,055-746-7413,34.8423603636,128.4286550814
20201030,20201101,경주 문화재야행 2020,경북 경주시 교동 71,054-779-6102,35.8314720272,129.2157786981
20201030,20201101,계룡산 산신제 2020,충청남도 공주시 계룡면 양화리 165번지,010-5807-4344,36.3336333187,127.1771648605
20200816,20200816,계촌마을 클래식 거리축제 2020,강원도 평창군 방림면 계촌길 63,02-966-6566,37.4530112700,128.3039208605
20210612,20210627,"고궁음악회「고궁의 숲, 무용을 만나다」",서울특별시 종로구 창경궁로 185,02-2270-1132,37.5776087901,126.9938137563
20201120,20210214,고니골빛축제 2021,강원도 원주시 호저면 호저로 1277-43,033-732-9586,37.4800230785,127.9154662381
20201030,20201031,고령 대가야 문화재 야행 2020,경상북도 고령군 대가야읍 대가야로 1216,054-954-2347,35.7201252528,128.2596991686
20201108,20201115,고마나루 전국 향토연극제 2020,충청남도 공주시 고마나루길 5,041-855-7519,36.4600121262,127.1112756996
20210918,20211003,고양가을꽃축제 2021,경기도 고양시 일산동구 호수로 595,031-908-7750~2,37.6538792239,126.7686654803
20200922,20200926,고양국제무용제 2020,경기도 고양시 일산동구 중앙로 1286,010-7794-5101,37.6612006889,126.7740064529
20201230,20210228,고양시 트리니팅 프로젝트 2021,경기도 고양시 일산동구 중앙로 1271-1,031-8075-3003 / 3004,37.6595397482,126.7727121731
20210903,20211010,고양호수예술축제,경기도 고양시 일산동구 호수로 595,031-960-9684,37.6538792239,126.7686654803
20210528,20210711,고창 라벤더 축제,전라북도 고창군 공음면 청천길 41-27,063-561-6907,35.3736427850,126.5350719884
20210618,20210622,고창 복분자와 수박축제,전라북도 고창군 고창읍 녹두로 1265,063-560-2531,35.4347661324,126.6841072139
20200918,20201101,고창 핑크뮬리 축제 2020,전라북도 고창군 부안면 복분자로 307,010-4500-3993,35.5027352266,126.6264384089
20200808,20200823,고한 함백산 야생화축제 2020,강원도 정선군 고한읍 고한6길 15-2,033-592-5455,37.2006452900,128.8544539785
20201019,20201109,공연관광 온라인 쇼케이스 < K-Performance On Air > 2020,온라인개최,070-4367-0559,,
20201030,20201101,공주 문화재야행 2020,충청남도 공주시 제민천길 일원,041-840-8204,36.4544351759,127.1219804447
20201019,20201120,관광산업 일자리박람회 2020,온라인개최,02-2486-9295~6,37.5117148467,127.0594429796
20211014,20211017,관악강감찬축제,서울특별시 관악구,02) 828-5763,37.4782084678,126.9514981970
20200807,20200815,광명가족극장 2020,경기도 광명시 시청로 20,02-2621-8853,37.4786040931,126.8646172095
20210703,20211002,광주 프린지페스티벌,광주광역시 남구 천변좌로338번길 7,062-670-7983,35.1479801537,126.9086639556
20201105,20201108,광주 ACE Fair 2020,광주광역시 서구 상무누리로 30,ACE Fair 사무국 062-611-2246,35.1469291222,126.8405366718
20211021,20211024,광주국제차문화전시회,광주광역시 서구 상무누리로 30,062)611-2256,35.1467180358,126.8405588979
20210903,20210917,광주문화재야행 '동구 달빛걸음',광주광역시 동구 서남로 1,062-608-8919,35.1455501169,126.9231210717
20210401,20210509,광주비엔날레 2021,광주광역시 북구 비엔날레로 111,062-608-4114,35.1825648257,126.8902647155
20210402,20210531,광주비엔날레미디어파사드 특별전,광주광역시 북구 비엔날레로 111,062-410-8228,35.1826203741,126.8902591590
20201102,20201122,광주세계김치랜선축제 2020,온라인개최,062-613-3955,,
20200831,20200915,괴산고추축제 2020,온라인개최,괴산군청 043-830-3461~3,36.8153806672,127.7866969589
20200901,20200927,구로G페스티벌 2020,서울특별시 구로구 가마산로 245,02-860-2282,37.4955247594,126.8875507563
20201230,20210127,구로청소년축제 2021,온라인개최,02-860-2140,37.4955247594,126.8875507563
20210101,20211231,국립민속박물관 우리민속한마당 2021,서울특별시 종로구 삼청로 37,02-3704-3114,37.5819663482,126.9788705506
20210201,20210303,국립민속박물관 정월대보름 한마당 2021,서울특별시 종로구 삼청로 37,"02-3704-3142, 3127",37.5819774581,126.9788594400
20210125,20210127,국립진주박물관 설맞이 문화행사,경상남도 진주시 남강로 626-35,055-740-0693,35.1889652253,128.0768878142
20201119,20201122,국제게임전시회 지스타 2020,부산광역시 해운대구 APEC로 55 벡스코,02-6203-4001,35.1691116738,129.1363347095
20201127,20201127,국제기구-MICE 커리어페어 2020,온라인개최,070-4848-0075,37.3890356252,126.6461951621
20200911,20200913,국제무형유산영상축제(IIFF) 2020,전라북도 전주시 완산구 서학로 95,iiff2020_ucc@naver.com,35.8096094714,127.1596803132
20211118,20211120,국제뿌리산업전시회,광주광역시 서구 상무누리로 30,062-611-2216,35.1467180358,126.8405588979
20210907,20210910,국제전기자동차엑스포,제주특별자치도 서귀포시 중문관광로 224,064-702-1580,33.2413184587,126.4245292209
20201015,20201111,국제종자박람회 2020,온라인개최,063-219-8831~5,35.8558248270,126.9058794948
20210729,20210801,국제차문화대전,서울특별시 강남구 영동대로 513,02-6000-8000,37.5112648981,127.0594124394
20200723,20200725,국제해양영화제 2020,부산광역시 해운대구 수영강변대로 120,051-790-9414,35.1711196124,129.1271521198
20210812,20210814,군산문화재야행,전라북도 군산시 구영2길 9,063)454-3922,35.9877258361,126.7079326463
20201009,20201018,군산시간여행축제 2020,온라인개최,063-454-3333,,
20201123,20201231,궁궐활용 온라인 프로젝트 '궁온' 2020,온라인개최,02-3210-4806~7,,
20210903,20210905,궁디팡팡 캣페스타,서울특별시 서초구 강남대로 27,070-8866-6668,37.4683111849,127.0390127336
20201019,20201025,궁에서 즐기는 슬기로운 가을나기 2020,서울특별시 종로구 사직로 161,"02-3210-4806,4807,3506",37.5788944508,126.9770319156
20211002,20211010,궁중문화축전,서울특별시 종로구 사직로 161,02-3210-4684,37.5788222356,126.9769930325
20201219,20201220,금련산축제 2020,온라인개최,051-625-0709,35.1552487193,129.1029379945
20210710,20210711,금산 삼계탕 축제,충청남도 금산군 금산읍 인삼광장로 30,041-750-4147,36.1002101508,127.5012171957
20200926,20200927,금호강바람소리길축제 2020,대구광역시 북구 산격동 14-45,053-320-5120,35.9116404433,128.6048329084
20201126,20201127,급이 있는 영화제 2020,온라인개최,051-990-7200,35.1710751722,129.1271132357
20210128,20210130,기획오페라 <사랑의 묘약> 2021,대구광역시 북구 호암로 15,053-666-6170,35.8835072863,128.5922570230
20210814,20210822,김대건 신부 탄생 200주년 기념행사 2021,충청남도 당진시 우강면 솔뫼로 132,041-350-3776,36.8201094630,126.7860785910
20210409,20210411,김제 모악산축제,온라인개최,063-540-3190,35.7188288389,127.0402488564
20210619,20211016,김천나이트투어 '직지골야행',경상북도 김천시 대항면 직지사길 95,054-434-4336,36.1171145622,128.0097381838
20210101,20211231,김포 음악불꽃크루즈 2021,경기도 김포시 고촌읍 아라육로270번길 74,1522-8905,37.5976583182,126.7871209331
20210529,20210529,꽃보다 하모니,대구광역시 중구 대봉동 6-11,053-255-5213,35.8603268485,128.6069813718
20210424,20210424,나를 사랑한 버스커 season2,대구광역시 중구 달구벌대로 2232,053-255-5213,35.8618461284,128.6073979595
20200717,20200913,나인블럭 썸머 트래블 투어 2020,경기도 광주시 경충대로 1969,031-761-5013,37.4033525944,127.2233867062
20210101,20211231,난타 (명동),서울특별시 중구 명동길 26,02-739-8288,37.5634463660,126.9837456304
20210211,20210226,남산골 세시절기 축제 정월대보름 2021,온라인개최,02-2261-0517,37.5584387906,126.9935365470
20210516,20210519,남원 춘향제,온라인개최,063-620-5787,35.4029483014,127.3799380290
20201008,20201011,남원흥부제 2020,전라북도 남원시 양림길 12,063-620-5785,35.4027150938,127.3856653066
20201010,20201101,남이섬 가족숲체험: 뚜벅 숲탐험대 2020,강원도 춘천시 남산면 남이섬길 1,남이섬교육문화그룹 031-580-8123,37.7901798790,127.5261480243
20200905,20200927,남이섬 어린이 목공체험: 뚝딱 우드랜드 2020,강원도 춘천시 남산면 남이섬길 1,02-753-1245~6,37.7901798790,127.5261480243
20210424,20210905,"남이섬 ""Ateliê : 4Room - 포르투갈 작가들의 숲속 공방""",강원도 춘천시 남산면 남이섬길 1,031-580-8193,37.7901798790,127.5261480243
20191214,20200405,남이섬 '비밀정원 : 위로가 필요한 당신에게'展 2020,강원도 춘천시 남산면 남이섬길 1,남이섬교육문화그룹 031-580-8193~5,37.7901798790,127.5261480243
20201009,20211231,남이섬 '한스 크리스티안 안데르센상 도서전 : 책과 어린이를 하나로' 2021,강원도 춘천시 남산면 남이섬길 1,남이섬교육문화그룹 031-580-8193,37.7901798790,127.5261480243
20200725,20201003,남해 다랭이 마을 달빛걷기 2020,경상남도 남해군 남면 남면로679번길 21,010-4590-4642,34.7275554382,127.8940546825
20201121,20210103,네이처파크 미라클크리스마스 2020,대구광역시 달성군 가창면 가창로 891,1688-8511,35.7881605357,128.6353392148
20210104,20210214,네이처파크 스윗윈터페스티벌 2021,대구광역시 달성군 가창면 가창로 891,1688-8511,35.7881605357,128.6353392148
20210410,20210606,네이처파크 플라워 페스티벌,대구광역시 달성군 가창면 가창로 891,1688-8511,35.7881605357,128.6353392148
20200926,20201108,네이처파크 할로윈페스티벌<호박마녀의 초대> 2020,대구광역시 달성군 가창면 가창로 891,1688-8511,35.7881605357,128.6353392148
20210603,20210606,노 모어 플라스틱(2021 NO MORE PLASTIC),서울특별시 성동구 왕십리로 63,010-4667-0417,37.5436136344,127.0435962960
20201014,20201018,논산 강경젓갈축제 2020,충청남도 논산시 강경읍 금백로 45,041-746-5904,36.1575310871,127.0097206525
20210224,20210228,논산딸기축제 2021,온라인개최,041-746-8386~8,36.2092819866,127.0819933696
20210101,20211231,늘근도둑 이야기,서울특별시 종로구 대학로12길 64,02-3672-0900,37.5811613326,127.0036933107
20200904,20201004,달성대구현대미술제 2020,대구광역시 달성군 다사읍 강정본길 57,053-659-4292,35.8411652970,128.4650638527
20210424,20210424,대구 달성토성마을 골목축제,대구광역시 서구 국채보상로81길 43,053-663-4256,35.8758161670,128.5747198936
20201023,20201025,대구 동성로축제,온라인개최,053-423-3337,,
20200925,20200926,대구 문화재 야행 2020,대구광역시 중구 남성로 27-1,053-661-2195,35.8711336027,128.5876911034
20211024,20211025,대구 컬러풀페스티벌,대구광역시 중구 국채보상로,053-430-1261~5,35.8710892750,128.5937461266
20210401,20210502,대구국제마라톤대회,대구광역시 북구 연암로 40,053-355-3872~3,35.8925536396,128.6006893617
20210618,20210705,대구국제뮤지컬페스티벌,온라인개최,053-622-1945,35.8834822890,128.5922514695
20210910,20211107,대구국제오페라축제,대구광역시 북구 호암로 15,053-666-6000,35.8834461788,128.5920987054
20200923,20200926,대구국제재즈축제 (Daegu International Jazz Fstival) 2020,온라인개최,1544-1850,35.8293778245,128.6205949230
20201123,20201129,대구국제패션문화페스티벌 2020,온라인개최,leess@krifi.re.kr,35.8294027794,128.6182979022
20200819,20200829,대구단편영화제 2020,대구광역시 중구 국채보상로 537,053-629-4424,35.8706531337,128.5894298526
20200917,20201101,대구음악제 2020,대구광역시 중구 태평로 141,053-656-7733,35.8761025954,128.5937126569
20210827,20210829,대구패션페어 2021,대구광역시 북구 엑스코로 10,053-721-7432,35.9070383402,128.6131378604
20210412,20210425,대전 과학문화축제 '사이언스데이',온라인개최,070-4219-7498,,
20201007,20201010,대전 사이언스페스티벌 2020,온라인개최,042-250-1273,36.3664721764,127.3880117687
20201016,20201017,대전ART마임페스티벌 2020,대전광역시 중구 중앙로 101,042-257-1231,36.3267634148,127.4209793431
20210528,20210530,대학로 거리공연축제,서울특별시 종로구 대학로8길 1,02-741-4188,37.5809974394,127.0023906561
20201030,20201031,대한민국 국악제 2020,충청남도 공주시 고마나루길 90,02) 744-8051,36.4666363013,127.1075869625
20210603,20210606,대한민국 국제요리&제과경연대회,서울특별시 서초구 강남대로 27 AT Center 제 2전시장,"02-802-7666, 7669",37.4672141004,127.0396016001
20200821,20200830,대한민국 국제해양레저위크(KIMA WEEK) 2020,부산광역시 수영구 남천동로 100,051-760-1130,35.1457333083,129.1132123622
20210201,20211231,대한민국 독서대전,부산광역시 북구 낙동대로1570번길 33,051-309-4944,35.1972252740,128.9904660788
20211008,20211017,대한민국 산림문화박람회,강원도 고성군 간성읍 수성로 111,02-3434-7246,38.3751461302,128.4621589107
20201216,20201218,대한민국 산업기술 R&D대전 2020,온라인개최,042-712-9231,37.5118092746,127.0591318945
20210428,20210502,대한민국 전통연희축제,서울특별시 서초구 남부순환로 2364,02-580-3274,37.4778984208,127.0088957592
20210821,20210821,대한민국무용대상,서울특별시 양천구 목동서로 225,02-744-8066,37.5271541181,126.8707958384
20201005,20201107,대한민국연극제 in 세종 2020,세종 조치원읍 문예회관길 22,044-866-7155,36.5994853520,127.2874560975
20210717,20210808,대한민국연극제 in 안동·예천,경상북도 안동시 축제장길 66,054-855-0039,36.5594329297,128.7251066358
20211112,20211114,대한민국향토식문화대전(&남북음식문화축제),서울특별시 서초구 강남대로 27,02-511-1540,37.4672141004,127.0396016001
20200928,20201115,더스테이힐링파크 힐링가을숲 2020,경기도 가평군 설악면 한서로268번길 134,031-580-3800,37.6610364848,127.5224076923
20210522,20210613,더현대 플로깅,서울특별시 영등포구 여의대로 108,070-7575-2351,37.5259691729,126.9283267400
20210101,20211231,덕수궁 왕궁수문장교대의식,서울특별시 중구 세종대로 99,다산콜센터 02-120,37.5650460435,126.9761046145
20210501,20210509,덕수궁 풍류,서울특별시 중구 세종대로 99,02-2270-1244,37.5658042673,126.9749158128
20201012,20201115,도봉산 페스티벌 2020,온라인개최,070-4153-6392,37.6527648428,127.0439570482
20211002,20211002,도봉옛길 문화제,서울특별시 도봉구 도봉로 552,02-905-4026,37.6541590259,127.0384686195
20210619,20210619,도솔산지구 전투전승행사,강원도 양구군 양구읍 박수근로 366-24,033-480-2229,38.1042324178,127.9830220431
20210514,20210514,동아시아문화도시 순천,전라남도 순천시 국가정원1호길 47,032-567-4075,37.4476825423,126.7000664030
20201121,20201231,동인천 낭만시장 2020,인천광역시 동구 송현동 동인천역 북광장,"032)899-7423, 032)899-7424",37.4767752107,126.6336383200
20200906,20200925,동편제마을 국악 거리축제,온라인개최,02-960-0714,35.4575258703,127.5626871293
20200918,20200920,드라이브스루 문경 오미자축제 2020,경상북도 문경시 동로면 적성교,054-571-7677,36.7715009920,128.3147176132
20201015,20201015,디아크 강빛축제 2020,대구광역시 달성군 다사읍 강정본길 57,053-585-0916~7,35.8411652970,128.4650638527
20200919,20200919,랩배틀그라운드 2020,강원도 철원군 동송읍 금학로210번길 12-3,강원도 평화지역문화과 033-249-3938,38.2077505366,127.2201164918
20201028,20201031,로보월드 (Robotworld) 2020,경기도 고양시 일산서구 킨텍스로 217-60,02-780-3074,37.6717044815,126.7437033703
20200905,20200906,로봇융합페스티벌 2020,대전광역시 유성구 엑스포로 107,042-250-1357,36.3749712688,127.3916889872
20200905,20201115,롯데월드 호러 할로윈 : The Invitation 2020,서울특별시 송파구 올림픽로 240,1661-2000,37.5112350469,127.0983644514
20201121,20201231,롯데월드 Lights Up 2020,서울특별시 송파구 올림픽로 240,1661-2000,37.5110683960,127.0981394766
20210501,20210529,리얼리티 러브 홀림픽,서울특별시 마포구 양화로 161,02-324-9137,37.5569904785,126.9233374302
20201125,20210214,마노르블랑 동백스케치 동백꽃축제 2021,제주특별자치도 서귀포시 안덕면 일주서로2100번길 46,064-794-0999,33.2548510403,126.2949957149
20210412,20210831,마노르블랑 수국축제,제주특별자치도 서귀포시 안덕면 일주서로2100번길 46,064-794-0999,33.2580867635,126.2930374799
20200909,20201130,마노르블랑 핑크뮬리축제 2020,제주특별자치도 서귀포시 안덕면 일주서로2100번길 46,064-794-0999,33.2548010467,126.2950512669
20201030,20201108,마산국화전시회 2020,경상남도 창원시 마산합포구 해안대로 148,055-225-2346,35.1884184830,128.5647145700
20200619,20200621,마켓을 여행하다,서울특별시 중구 장충단로13길 20,02-1661-6925,37.5687878415,127.0076821872
20200812,20200814,만해축전 2020,강원도 인제군 북면 만해로 91,033-461-1588,38.1862375638,128.3166085986
20200827,20200830,메가쇼 시즌2 2020,서울특별시 강남구 남부순환로 3104,02-6677-3477,37.4957363721,127.0719811806
20201117,20201117,명성황후숭모제 2020,온라인개최,031-881-9730,37.2601909255,127.6561404952
20200806,20200809,명원세계차박람회 2020,서울특별시 강남구 영동대로 513,02-730-7191,37.5117592813,127.0591874466
20210811,20210815,명주인형극제 2021,강원도 강릉시 경강로2021번길 9-1,033-823-3221,37.7503881446,128.8897923899
20200811,20200906,모두의 전람회 <그럼에도 변하지 않은 것들展> 2020,서울특별시 구로구 구로동 3-33,02-867--2202,37.5107924524,126.8888363208
20201023,20201031,목포 문화재야행 2020,온라인개최,061-270-8321,34.7896785040,126.3842968662
20201016,20201018,무등울림 2020,광주광역시 동구 의재로 222,062-670-8525,35.1336797291,126.9523771168
20210623,20210627,무안황토갯벌축제,전라남도 무안군 해제면 용산길 140,061-450-5472,35.1038921844,126.3319661146
20201217,20201231,무역센터 겨울축제 '코엑스 윈터페스티벌' 2020,서울특별시 강남구 영동대로 513,02-6000-0114,37.5117592813,127.0591874466
20210302,20211231,무예24기 시범공연,경기도 수원시 팔달구 정조로 825,수원시립공연단(031-267-1644),37.2816684780,127.0134508573
20200905,20200913,무주반딧불축제 2020,전라북도 무주군 무주읍 한풍루로 326-17,063-324-2440,36.0122914188,127.7588883191
20210603,20210613,무주산골영화제,전라북도 무주군 무주읍 당산리 1118,063-245-6400,36.0026741087,127.6615055635
20210522,20210724,문경달빛사랑여행,경상북도 문경시 문경읍 문경대로 2426,054-571-7677,36.7420889505,128.0826336405
20201012,20201031,문경사과축제 2020,온라인개최,054-571-7677,36.7615977206,128.0769835905
20201201,20201215,문경찻사발축제 2020,온라인개최,054-550-6395,36.7415612525,128.0836724515
20200926,20201130,문학주간 '문학은 더 가깝게' 2020,온라인개최,061-900-2328~9,,
20200829,20200830,문화가 있는 날 [농(農) 리브 디 아트] 2020,충청북도 청주시 청원구 내수읍 청암로 458,0507-1341-1731,36.7162131875,127.5735521965
20210425,20210505,"문화로 토닥토닥 ""찾아가는 공연""",온라인개최,찾아가는공연 운영사무국 (02-3443-2695),37.5508549625,126.9167298722
20201016,20201018,문화의 달 파주 2020,온라인개최,010-8743-0652,,
20210703,20210822,"물총부대, 더위와의 전쟁",경기도 용인시 기흥구 민속촌로 90,031-288-0000,37.2594535228,127.1205723175
20210101,20211231,뮤직드라마 당신만이,서울특별시 종로구 이화장길 26,070-8245-2602,37.5766424167,127.0039128630
20201106,20201107,미래교육 오산국제포럼 2020,경기도 오산시 청학로 45,031-377-1708,37.1558616663,127.0611083793
20211007,20211017,미술주간,서울특별시 종로구 삼청로 30,02-2098-2930,37.5786500878,126.9800038741
20201205,20210131,미추홀 윈터마켓 (Winter Market) 2020,인천광역시 미추홀구 주안로 95-19,"032)899-7423, 032)899-7424",37.4650357377,126.6806176942
20210723,20210807,밀양 공연예술축제,경상남도 밀양시 부북면 창밀로 3097-16,055-355-2308,35.5334627837,128.7046512764
20210410,20211024,밀양 무형문화재 주말 상설공연,경상남도 밀양시 내일중앙2길 19,"055)354-3767, 351-3767",35.4970344470,128.7532369100
20200509,20200919,밀양강 상설프로그램 - 밀양강이 들려주는 밀양아리랑 2020,경상남도 밀양시 삼문동 244-2,055-355-4506,35.4899880558,128.7552785917
20200912,20200912,박달 가요제 2020,온라인개최,043-641-5114,37.1361765683,128.2084832264
20210708,20210714,백제문화유산주간,충청남도 공주시 고마나루길 90,-,36.4666363013,127.1075869625
20210925,20211003,백제문화제 「제67회 백제문화제」,충청남도 공주시 금벽로 368,041-635-6980,36.4702612354,127.1274545269
20210410,20210509,베어트리파크 철쭉제,세종특별자치시 전동면 신송로 217,044)863-2220,36.6704147109,127.2095361586
20210407,20210505,벽초지수목원 튤립축제,경기도 파주시 광탄면 부흥로 242,031-957-2004,37.8005668228,126.8754543355
20201029,20201030,별망성예술제 2020,온라인개최,031-485-3844,37.3343697640,126.8044072727
20210101,20211231,별빛정원우주 365일 별빛축제 2021,경기도 이천시 마장면 덕이로154번길 287-76,031-645-0002,37.2412993636,127.3897540042
20210410,20210418,보곡산골 산꽃여행,충청남도 금산군 군북면 자진뱅이길 39,041-750-4147,36.1943922555,127.5676115121
20200926,20200927,보드게임콘 대전 2020,대전광역시 유성구 엑스포로 107 대전컨벤션센터,070-8611-9803,36.3752740158,127.3919056259
20210624,20210628,보물섬 마늘&한우 축제,경상남도 남해군 남해읍 남해대로 2745,055-864-4515,34.8319688358,127.8991571146
20210101,20211231,보신각 상설타종행사,서울특별시 종로구 종로 54,02-2133-2641,37.5697984025,126.9835621340
20201016,20201030,보은대추 온라인축제 2020,온라인개최,043-540-3392,36.4863477960,127.7232423965
20210504,20210514,복사골예술제,온라인개최,032-325-1566,37.5035799926,126.7659810559
20210501,20210509,봄 패밀리 페스티벌,경상북도 경주시 경감로 614,054-748-3011,35.8298874643,129.2882640602
20210227,20210227,봄날愛 비긴어게인 2021,대구광역시 중구 대봉동 6-11,053-255-5123,35.8603268485,128.6069813718
20200731,20200817,봉자페스티벌 2020,경상북도 봉화군 춘양면 춘양로 1501,054-679-1000,37.0081780294,128.8299924699
20210423,20210425,부산 국제보트쇼,부산광역시 해운대구 APEC로 55,051-740-8600,35.1691116738,129.1363347095
20210401,20210430,부산 낙동강 유채꽃축제,비대면개최,051-501-6051,35.2132567428,128.9867798506
20210421,20210423,부산 마이스페스티벌,부산광역시 해운대구 APEC로 55,051-740-7821,35.1691116738,129.1363347095
20201023,20201025,부산 의료기기 전시회 KIMES BUSAN 2020,부산광역시 해운대구 APEC로 55,02-551-0102,35.1691116738,129.1363347095
20201012,20201108,부산 조선통신사축제 2020,부산광역시 동구 자성로 99,051-744-7707,35.1357834483,129.0604783319
20200918,20200922,부산 한가위 추석 선물대축제 2020,부산광역시 해운대구 APEC로 55,051-723-8318,35.1691366711,129.1363402640
20210421,20210426,부산국제단편영화제,부산광역시 해운대구 수영강변대로 120,051-742-9600,35.1713084771,129.1269826847
20201124,20201129,부산국제매직페스티벌 2020,부산광역시 해운대구 수영강변대로 120,051-626-7002,35.1707946470,129.1270576924
20210604,20210607,부산국제무용제,부산광역시 해운대구 달맞이길62번길 47,051-868-7881~2,35.1580163619,129.1723763250
20210623,20210626,부산국제식품대전,부산광역시 해운대구 APEC로 55,02-588-2489,35.1689089062,129.1356514414
20201203,20201207,부산국제아트페어 2020,부산광역시 해운대구 APEC로 55,051-806-1004,35.1689089062,129.1356514414
20210705,20210712,부산국제어린이청소년영화제,부산광역시 해운대구 수영강변대로 120,051-743-7652,35.1707752050,129.1270688034
20200925,20200927,부산국제연극제 2020,온라인개최,051-802-8003,35.1272127941,129.0934562537
20211006,20211015,부산국제영화제,부산광역시 해운대구 수영강변대로 120,1688-3010,35.1707946470,129.1270576924
20210617,20210620,부산국제차공예박람회,부산광역시 해운대구 APEC로 55,051-740-7705~7,35.1690700054,129.1359569660
20200821,20200830,부산국제코미디페스티벌 2020,부산광역시 해운대구 수영강변대로 120,051-916-8828,35.1717167754,129.1275659567
20201024,20201024,부산국제합창제 2020,온라인개최,070-4172-0682,35.1707946470,129.1270576924
20200815,20200816,부산나이트워크42K 2020,부산 사상구 삼락동 29-46,070-4705-2532,35.1692058662,128.9727489430
20210617,20210620,부산디자인위크,부산광역시 해운대구 APEC로 55,02-2262-7165,35.1691366711,129.1363402640
20201123,20201208,"부산스토리텔링 프로젝트 [중구, Back to the 1950's] 2020",부산광역시 연제구 중앙대로 1217,051-505-2030,35.1931103961,129.0624154826
20210521,20210523,부산원도심골목길축제,부산광역시 중구 용두산길 37-55,051-501-6051,35.1009757174,129.0324650517
20210506,20210509,부산원아시아페스티벌,온라인개최,051-780-4144,35.2313022594,129.0039806357
20210623,20210626,부산커피쇼,부산광역시 해운대구 APEC로 55,02-588-2489,35.1690700054,129.1359569660
20201211,20201213,부산콘텐츠유니버시아드 (BCU) 2020,온라인개최,051-747-1905,35.1728721628,129.1254661073
20210702,20210704,부산푸드필름페스타,부산광역시 해운대구 구남로18번길 24,051-710-6948,35.1619128962,129.1588135087
20210619,20210620,부산항축제,부산 동구 초량동 1185-47,051-501-6051,35.1129969360,129.0510436637
20210501,20210630,부안 마실축제,전라북도 부안군 부안읍 예술회관길 11,063-580-4777,35.7243617115,126.7255045187
20201023,20201024,부여문화재야행 2020,온라인개최,041-830-2648,,
20200810,20200823,부천 생활문화페스티벌 다락(多樂) 2020,경기도 부천시 장말로 107,032-320-6387~8,37.4948363559,126.7542268168
20210904,20210912,부천국제만화축제,온라인개최,032-310-3071,37.5081512657,126.7424497412
20201023,20201027,부천국제애니메이션페스티벌 2020,경기도 부천시 원미구 길주로 1,032-325-2061,37.5090761579,126.7424330498
20210708,20210718,부천국제판타스틱영화제,경기도 부천시 길주로 210,032-327-6313,37.5036438746,126.7660143844
20200926,20200927,부천세계비보이대회 (Bucheon Bboy International Championship) 2020,온라인개최,032.324.5989,37.4846908118,126.7823328711
20200919,20200919,부천전국대학가요제 2020,온라인개최,032-625-3113,37.4840214493,126.7826245299
20201106,20201112,부평음악도시축제 뮤직게더링 2020,온라인개최,032-500-2042,37.4830090594,126.7038428531
20201016,20201018,부평풍물대축제 2020,온라인개최,032-509-7516,37.5070399183,126.7218183207
20210223,20210223,북촌한옥마을 계동마님댁 대보름 달맞이 2021,서울특별시 종로구 계동길 37,02-741-1033,37.5790640424,126.9863810591
20210626,20210627,뷰티풀 민트 라이프,서울특별시 송파구 올림픽로 424,고객문의: mintpaper@mpmg.co.kr,37.5194456386,127.1224425827
20200807,20200809,비건페스타 2020,서울특별시 강남구 남부순환로 3104,02-2223-1853,37.4957363721,127.0719811806
20200904,20200908,비대면 온라인 축제 MIMAF 목포세계마당페스티벌 2020,온라인개최,061-243-9786,34.7900701064,126.3830691873
20210703,20210828,비엔날레 문화콘서트,광주광역시 북구 비엔날레로 111,북구청 특화마을육성과 062-410-8228,35.1826203741,126.8902591590
20191206,20210228,빛의 벙커 '반 고흐' 2020,제주특별자치도 서귀포시 성산읍 서성일로1168번길 89-17,1522-2653,33.4398096742,126.8990724780
20210508,20210523,사람사랑 생명사랑 밤길걷기 함께 GOWALK,온라인개최,070-7727-1755,37.5263886632,126.9336123570
20201016,20201023,사랑-인도문화축제 2020,온라인개최,02-792-4257,37.5350834931,127.0114911282
20200814,20200815,산골공연 예술잔치 2020,온라인개최,043-743-0004,,
20210529,20210529,"산속등대미술관 제1회 사생대회 ""기후·환경 그리고 우리""",전라북도 완주군 소양면 원암로 82,063-245-2456,35.8693487272,127.2520149740
20201010,20201018,삼랑성역사문화축제 2020,인천광역시 강화군 길상면 전등사로 37-41,032-937-0125,37.6321461675,126.4843809763
20210208,20210226,삼척 정월대보름제 2021,온라인개최,033-573-9882,37.4387321558,129.1597555361
20200925,20201225,새만금 노마드 페스티벌 2020,온라인개최,063-733-1000,35.8363978474,126.4965498804
20201120,20201121,서귀포 칠십리축제 2020,제주특별자치도 서귀포시 서홍동 689,064-760-3946,33.2429009798,126.5599368915
20211007,20211010,서귀포문화재야행,제주특별자치도 서귀포시 남성로128번길 13,070-8990-9999,33.2417982612,126.5559872587
20210222,20210301,"서대문, 1919 그날의 함성! 2021",온라인개최,02-360-8590,37.5745751240,126.9556173237
20200801,20200831,서대문독립민주축제 2020,온라인개최,02-330-1410,37.5743584811,126.9555506693
20210507,20210509,서울 국제 푸드 앤 테이블웨어 박람회 2021,서울특별시 서초구 강남대로 27,02-511-1540,37.4672141004,127.0396016001
20200908,20200913,서울 드라마어워즈 2020,서울특별시 마포구 월드컵북로 400,02-3219-5580,37.5804343779,126.8899259259
20200723,20200725,서울 물순환 시민문화제 2020,서울특별시 중구 세종대로 110,서울특별시 물순환정책과 02-2133-3764,37.5665986816,126.9783710306
20210106,20210124,서울 아시테지 겨울축제 2021,온라인개최,02-745-5862~3,37.5904796058,126.9988129355
20210519,20210522,서울 케이팝 댄스 페스티벌,서울특별시 동대문구 답십리로 72,010-3246-5710,37.5752683826,127.0487254857
20211016,20211017,서울100K (SEOUL100K),서울 중구 태평로 2가 17-3,02-516-2010,37.5653988094,126.9777155697
20210607,20211130,서울365거리공연,서울특별시 마포구 연남로1길 55,02-542-2695,37.5595179109,126.9204598433
20200828,20200829,서울국악축제 2020,온라인개최,070-4185-4527,37.5585082277,126.9935754302
20201109,20201112,서울국제관광산업박람회 2020,서울특별시 강남구 남부순환로 3104,02-757-6161,37.4957363721,127.0719811806
20200820,20200821,서울국제대안영상예술페스티벌 2020,서울특별시 마포구 와우산로35길 53,02-337-2870,37.5564295139,126.9278870311
20210908,20211016,서울국제도서전,서울특별시 성동구 연무장15길 11,02-7333-8402,37.5428834410,127.0590032474
20201105,20201115,서울국제불교박람회 2020,온라인개최,02-2231-2013,,
20200801,20200807,서울국제실험영화페스티벌 2020,서울특별시 마포구 월드컵북로 400,02-3141-1841,37.5804315992,126.8898898184
20200910,20200916,서울국제여성영화제 2020,서울특별시 마포구 월드컵로 240,02-583-3598,37.5683081417,126.8972867084
20201020,20201101,서울국제음악제,서울특별시 서초구 남부순환로 2406,1544-5142,37.4785261578,127.0107150202
20201102,20201108,서울국제작가축제(Seoul International Writers' Festival) 2020,온라인개최,-,37.5675991318,127.0099486810
20201008,20201018,서울국제정원박람회 2020,온라인개최,02-120(다산콜센터),37.5575996956,126.9766214450
20210702,20210704,서울국제주류박람회 2021,서울특별시 강남구 영동대로 513 코엑스 B홀,02-761-2518,37.5117592813,127.0591874466
20210527,20210530,서울도시농업박람회,서울시 양천구 신정동 871-2,02-6358-7775,37.5205772468,126.8787480766
20210528,20210529,서울드럼페스티벌,서울특별시 중구 동호로 241,070-4272-7330,37.5582390522,127.0068047884
20211222,20211226,서울디자인페스티벌,서울특별시 강남구 영동대로 513,02-2262-7200,37.5117148467,127.0594429796
20210326,20210401,서울라이트(SEOUL LIGHT),서울특별시 중구 을지로 281,02-2133-2704,37.5675991318,127.0099486810
20201127,20210301,서울랜드 겨울 빛축제 2021,경기도 과천시 광명로 181,02-509-6000,37.4366477965,127.0169239697
20210526,20210523,서울리빙디자인페어,서울특별시 강남구 영동대로 513,02-2262-7152,37.5117148467,127.0594429796
20201201,20201204,서울마을미디어축제 2020,온라인개최,02-3141-6390,37.5665986816,126.9783710306
20200821,20200830,서울맥주축제 2020,서울특별시 광진구 광나루로 441,02-6012-8577,37.5470527467,127.0781902704
20211125,20211205,서울모터쇼 (Seoul Motor Show) 2021,경기도 고양시 일산서구 킨텍스로 217-60,02-3660-1894,37.6689909419,126.7455782754
20211110,20211128,서울무용제,서울특별시 종로구 대학로8길 7,02-744-8066,37.5811724288,127.0029794866
20201016,20201017,서울무형문화축제 2020,온라인개최,02-742-6444,37.5584387906,126.9935365470
20201020,20201102,서울미래연극제 2020,서울특별시 마포구 마포대로19길 12,02-765-7500,37.5527554374,126.9555873879
20201030,20201231,서울빛초롱축제 2020,서울시 관광특구,02-3788-0845,37.5113879299,127.1051721612
20200714,20200816,서울사진축제,서울특별시 노원구 동일로 1238,02-706-6751,37.6406499975,127.0668386402
20201104,20201105,서울생명사랑 국제자살예방 온라인 심포지엄 2020,온라인개최,02)3458-1071,,
20201106,20201122,서울세계무용축제 2020,온라인개최,02-3216-1185,37.5562820926,126.9157992483
20200916,20201128,서울시 태권도 상설공연 <온라인 태권도 공연> 2020,온라인개최,02-6674-4303,,
20201107,20201120,서울시민시장위크 To+gather마켓 온라인 2020,온라인개최,02-6015-2620,37.5947100909,127.0222412353
20200829,20200927,서울시민연극제 2020,서울특별시 관악구 신림로3길 35,02-765-7500,37.4676512424,126.9448852069
20210915,20210915,서울안전한마당,서울특별시 중구 을지로 281,02-3706-1561,37.5675991318,127.0099486810
20210430,20210530,서울연극제,서울특별시 종로구 대학로8길 7,02-765-7500,37.5811724288,127.0029794866
20210105,20210105,서울영상광고제 2021,온라인개최,02-3447-0101,37.5665986816,126.9783710306
20201008,20201011,서울와우북페스티벌 2020,서울특별시 마포구 토정로11길 60,02-312-1590,37.5461611851,126.9235460497
20210825,20210828,서울일러스트레이션페어V.11,서울특별시 강남구 봉은사로63길 35,02-2062-8601,37.5136810472,127.0462413481
20210513,20210531,서울장미축제,서울특별시 중랑구 중랑천로 332,02-3407-6531,37.6143448429,127.0735276696
20201001,20201031,서울지식이음축제·포럼 2020,온라인개최,02-2133-0300,37.5655599052,126.9779405439
20200916,20200926,서울청소년연극축제 2020,서울특별시 중구 세종대로19길 16,02-765-7500,37.5667736284,126.9765823002
20211110,20211113,서울카페쇼 2021,서울특별시 강남구 영동대로 513,02-6000-6720,37.5117592813,127.0591874466
20201029,20201101,서울커피앤티페어 2020,서울특별시 서초구 강남대로 27,02-579-4725,37.4664808435,127.0391127763
20200805,20200912,서울평화문화축제 2020,서울특별시 도봉구 마들로 932,02-908-2921,37.6908326881,127.0468279220
20210804,20210829,서울프린지페스티벌,서울특별시 마포구 증산로 87,02-325-8250,37.5731297249,126.8929203036
20201105,20201111,서점의 날 2020,서울특별시 구로구 가마산로25길 9-3,02-927-1437,37.4965969039,126.8902254828
20210402,20210411,석촌호수 벚꽃축제,온라인개최,02-2147-2800,37.5111851145,127.1017724761
20201231,20210225,설빙송어빙어축제 2021,경기도 가평군 청평면 강변로 17,031-584-2755,37.7346564825,127.4133710249
20201211,20210131,섬 겨울꽃 랜선 축제 2020,전라남도 신안군 압해읍 수락길 330,061-240-8778,34.8436285971,126.2519711582
20210318,20211216,성남아트센터 마티네콘서트,경기도 성남시 분당구 성남대로 808,031-783-8000,37.4019566143,127.1292175196
20201126,20201129,성북 책모꼬지(Book Festival) 2020,온라인개최,02-6906-9285,37.5991983238,127.0147806769
20201120,20201128,성북세계음식축제 누리마실,서울특별시 성북구 성북로8가길 1,02-6906-3194,37.5908963183,127.0040457802
20210601,20210601,세계 우유의 날 기념 밀크온 콘서트,서울특별시 서초구 서초대로 141-25,02-588-7202~3,37.4895107763,126.9985741482
20210508,20211023,세계유산 활용프로그램 <수원화성 낭만소풍>,경기도 수원시 장안구 영화동 320-2,031-290-3573,37.2872039225,127.0120008348
20210813,20211017,세계유산축전,서울특별시 종로구 사직로 161,02-3210-4633,37.5788944508,126.9770319156
20211001,20211017,세계유산축전 - '제주 화산섬과 용암동굴',제주특별자치도 제주시 조천읍 선교로 569-36,064-710-6873,33.4569020299,126.7142575546
20201029,20201029,세계평화포럼(World Peace Forum) 2020,부산광역시 해운대구 센텀서로 30,051-850-9344,35.1720528657,129.1284797561
20201028,20201030,세계한상대회 2020,부산광역시 해운대구 APEC로 55,"02-3415-0052, 0051",35.1691366711,129.1363402640
20201027,20201029,세계해양포럼 2020,온라인개최,051-461-4346,35.1599632134,129.1641325437
20210621,20210815,세미원 연꽃여행,경기도 양평군 양서면 양수로 93,031-775-1835,37.5409273515,127.3239403130
20191201,20200314,세빛 일루미네이션 빛축제 2020,서울특별시 서초구 올림픽대로 683,02-3477-5300,37.5124247345,126.9959487403
20210101,20211231,속초 음악불꽃크루즈 2021,강원도 속초시 중앙로 214-1,1522-8905,38.2096096416,128.5934271477
20210101,20211231,수문장 교대의식,서울특별시 종로구 사직로 161,02-3210-1645,37.5801859611,126.9767235747
20201023,20201029,수성구 평생학습주간 축제 2020,온라인개최,053-666-4223,35.8299818185,128.6901804487
20211001,20211003,수성못 페스티벌(SUSEONG LAKE FESTIVAL),대구광역시 수성구 무학로 112,053-666-2000,35.8293778245,128.6205949230
20201211,20201229,수성빛예술제 2020,대구광역시 수성구 두산동 606-1,053-668-1540,35.8285918061,128.6208254801
20210813,20210815,수원 문화재 야행,경기도 수원시 팔달구 정조로 825,031-290-3572~3575,37.2818712498,127.0143757682
20200816,20200820,수원발레축제 2020,경기도 수원시 장안구 이목로 24-25,02-2263-4680,37.3097508547,126.9864802990
20211001,20211003,수원연극축제 <숲 속의 파티>,경기도 수원시 권선구 서둔로 155,031-290-3533,37.2654892105,126.9806042911
20210101,20211231,수원화성 빛의 산책로,경기도 수원시 장안구 연무동 190,031-290-3600,37.2874872131,127.0114425437
20210101,20211231,수원화성의 비밀 2021,경기도 수원시 팔달구 행궁로 11,031-290-3563,37.2810769133,127.0152812635
20200911,20200913,순천 푸드·아트 페스티벌 2020,전라남도 순천시 중앙로 125,061-749-5502,34.9567976217,127.4840069709
20201010,20201011,순천만국가정원 차문화산업전 2020,전라남도 순천시 국가정원1호길 47 순천만국가정원,010-5551-2010,34.9293648665,127.4998312785
20201111,20201113,스마트공장구축 및 생산자동화전 2020,경기도 수원시 영통구 광교중앙로 140 수원컨벤션센터(SCC),02-588-2526,37.2858799237,127.0594632301
20210721,20210723,스마트국토엑스포,서울특별시 강남구 영동대로 513,031-738-5170,37.5117592813,127.0591874466
20201028,20201031,스타트업 블랙프라이데이 IF 2020,서울특별시 강남구 영동대로 513,070-7779-7128,37.5117148467,127.0594429796
20210731,20210731,스펜서 망상 페스티벌,강원도 동해시 동해대로 6314,070-4880-0890,37.5960597760,129.0845713136
20210425,20210425,시끌벅적 과학축제,서울특별시 광진구 구천면로 2,02-2204-3190,37.5464088823,127.1062266254
20201017,20201017,시네마 힐링 콘서트 2020,대구광역시 중구 대봉동 6-11,053-255-5123,35.8603268485,128.6069813718
20210604,20210827,"시민청 6-8월 문화예술 프로그램 <여름, 시민청>",서울특별시 중구 세종대로 110,공연 02-739-7331<br> 미디어아트·체험 02-739-5811<br> 장터 02-739-5226,37.5666625635,126.9784043599
20210101,20211231,시크릿,서울특별시 종로구 동숭길 72,02-747-7407,37.5814363108,127.0042904706
20201120,20201122,신라소리축제 에밀레전 2020,경북 경주시 교동 274,053-427-5114,35.8291362094,129.2173508492
20210618,20210627,신안 섬수국축제,전남 신안군 도초면 지남리,061-240-8454,34.6815388662,125.9285452858
20211018,20211029,실버문화페스티벌,온라인개최,02-719-9062,37.5570966421,126.9579759370
20210623,20210627,실향민문화축제,"강원도 속초시 청호동 550-13, 아바이마을",033-636-0670,38.2037159039,128.5944827913
20210312,20210325,아세안 영화주간 - 온:택트,서울특별시 강남구 논현로 848,aseancw@gmail.com,37.5246239091,127.0288731753
20201020,20201020,아시아문화포럼 2020,온라인개최,062-670-7435,35.1467693755,126.9202851804
20201005,20201010,아시아송 페스티벌 (Asia Song Festival) 2020,온라인개최,052-290-1142,35.5626603600,129.3479914251
20210727,20210822,아시아프,서울특별시 마포구 와우산로 94,asyaaf@chosun.com,37.5512772937,126.9255540555
20210717,20210808,아시테지 국제여름축제,서울특별시 종로구 동숭길 114,02-745-5863,37.5832416489,127.0038654579
20200910,20200913,아이가 행복입니다 2020,서울특별시 송파구 올림픽로 300,1855-3164,37.5126099637,127.1025668077
20210320,20210408,아침고요 야생화전시회,경기도 가평군 상면 수목원로 432,1544-6703,37.7439487308,127.3525096320
20200912,20201004,아침고요수목원 들국화전시회 2020,경기도 가평군 상면 수목원로 432,1544-6703,37.7417489763,127.3519430810
20200725,20200823,아침고요수목원 무궁화전시회,경기도 가평군 상면 수목원로 432,1544-6703,37.7424072328,127.3519180642
20210410,20210519,아침고요수목원 봄나들이 봄꽃축제,경기도 가평군 상면 수목원로 432,1544-6703,37.7417489763,127.3519430810
20210605,20210704,아침고요수목원 수국전시회,경기도 가평군 상면 수목원로 432,1544-6703,37.7440126130,127.3525568480
20201016,20201101,안 무서운 할로윈 축제 2020,경기도 용인시 기흥구 동백죽전대로175번길 6,080-500-0175,37.2576961086,127.1604631946
20200801,20201031,안동 달빛투어 달그락 2020,경상북도 안동시,054-858-1894,36.5628271349,128.7329475077
20200806,20200809,안동 월영야행 2020,경북 안동시 상아동 569,054)856-3013,36.5770649158,128.7603446627
20210101,20211231,안산별빛마을 애니멀 & 하트빌리지 빛축제 2021,경기도 안산시 상록구 수인로 1723,031-484-5050,37.3394480000,126.8634434286
20210327,20211127,안성 남사당 상설공연,경기도 안성시 보개면 남사당로 198-2,031-678-2518,37.0318221187,127.3101448759
20201223,20210214,안성두메호수빙어축제 2021,경기도 안성시 죽산면 두메호수로 90,031-674-4528,37.0094684960,127.4284792701
20201001,20201130,안양시민축제 <우선멈'춤'프로젝트> 2020,온라인개최,031-687-0500,37.3901438629,126.9612886704
20210619,20210711,양기철철 단오,경기도 용인시 기흥구 민속촌로 90,031-288-0000,37.2593868634,127.1205445440
20201107,20201108,양산배내골사과축제 2020,온라인개최,055-365-6262,35.4869565434,128.9857612877
20210615,20210615,양양문화제,강원도 양양군 양양읍 양양로 114-5,033-671-8762,38.0742452792,128.6164903837
20201105,20201108,양재플라워페스타 2020,온라인개최,02-585-0091,37.4683111849,127.0390127336
20201224,20210221,양주 눈꽃축제 2021,경기도 양주시 장흥면 권율로 594,080-233-7766,37.7581595486,126.9684887063
20210501,20210509,양평 용문산 산나물축제,온라인개최,031-770-2096,37.5463286753,127.5823278077
20210514,20210613,에버랜드 로즈가든,경기도 용인시 처인구 포곡읍 에버랜드로 199,031-320-5000,37.2939343647,127.2040721101
20200904,20201122,에버랜드 블러드시티 2020,경기도 용인시 처인구 포곡읍 에버랜드로 199,에버랜드 관광안내소 031-321-9393<br />에버랜드 031-320-5000,37.2902124898,127.1994281916
20210618,20210829,에버랜드 썸머워터펀,경기도 용인시 처인구 포곡읍 에버랜드로 199,031-320-5000,37.2924319247,127.2131685506
20210326,20210430,에버랜드 튤립가든,경기도 용인시 처인구 포곡읍 에버랜드로 199,031-320-5000,37.2924319247,127.2131685506
20201120,20210301,에버랜드 Winter Wishes 2021,경기도 용인시 처인구 포곡읍 에버랜드로 199,에버랜드 관광안내소 031-321-9393<br />에버랜드 031-320-5000,37.2924319247,127.2131685506
20200919,20200920,에코런 페스티벌 2020,온라인개최,010-5053-0062,35.5381904972,129.3272244826
20200911,20200920,여성마라톤대회 2020,온라인개최,02-2036-9214,,
20210101,20211231,여수 음악불꽃크루즈 2021,전라남도 여수시 돌산읍 돌산로 3617-18,1522-8905,34.7297302429,127.7369794626
20210702,20210724,여우樂 페스티벌,서울특별시 중구 장충단로 59,02-2280-4114,37.5519729781,126.9992473208
20210409,20210411,여주 흥천남한강벚꽃축제,경기도 여주시 흥천면 귀백리 38-8번지 일원,031-887-3875,37.3480678646,127.5583690338
20210101,20211231,연극 라이어 (대학로),서울특별시 종로구 대학로 144,02-747-2070,37.5839831970,127.0020350484
20210101,20211231,연극 수상한 흥신소,서울특별시 종로구 대학로 128,070-8129-7420,37.5827166790,127.0021350751
20200101,20201231,연극 죽여주는 이야기,서울특별시 종로구 이화장길 72,02-6326-1333,37.5784894370,127.0046294120
20210514,20210530,연등회,서울특별시 종로구 우정국로 55,02-2011-1744∼7,37.5733035136,126.9815038890
20201201,20201231,영덕대게축제 2020,온라인개최,054-734-0700,36.3610487826,129.3928005965
20200924,20200927,영동난계국악축제 2020,충청북도 영동군 영동읍 중앙로 11,043-745-8912,36.1770756832,127.7729881364
20201231,20210101,영동대로 카운트다운 2021,온라인개최,02-751-9356,37.5117148467,127.0594429796
20210611,20210611,영등포 단오축제,서울특별시 영등포구 신길로 275,영등포문화원 02-846-0155~6,37.5161700211,126.9121007163
20210405,20210430,영등포 여의도봄꽃축제,서울특별시 영등포구 여의서로,02-2670-3114,37.5320321034,126.9141334174
20200914,20201015,영양고추 온라인 H.O.T 페스티벌 2020,온라인개최,054-683-7300,36.6667641566,129.1124108047
20210430,20210502,영월 단종문화제,강원도 영월군 영월읍 제방안길 100,033-375-6353,37.1786125178,128.4595900002
20201024,20201101,영주 사과축제 2020,경북 영주시 시민운동장 및 서천둔치,054-630-8711~8713,36.8071635574,128.6102096587
20210529,20210530,영주 소백산철쭉제,경상북도 영주시 대학로 77,054)630~8706~9,36.8045917160,128.6147843254
20201028,20201101,예당국제공연예술제 2020,충청남도 예산군 예산읍 군청로 22,070-7724-3787,36.6809487402,126.8447520518
20201016,20201029,예산장터삼국축제 2020,백종원 국밥거리 일원 및 온라인 개최,041-335-2441,36.6761049083,126.8479185639
20200919,20200920,예천국제스마트폰영화제 2020,온라인개최,054-655-8082,36.5752351070,128.4931129092
20210821,20210821,오감만족 문경새재맨발페스티벌,경상북도 문경시 문경읍 새재로 932,053-754-7981,36.7615977206,128.0769835905
20201005,20201018,오산독산성문화제 2020,온라인개최,"031-379-9924,6",37.1742064941,127.0458092551
20201204,20210314,오색별빛정원전 2021,경기도 가평군 상면 수목원로 432,1544-6703,37.7448402954,127.3525845994
20201020,20201024,오송화장품뷰티산업 엑스포 2020,충청북도 청주시 흥덕구 오송읍 오송가락로 123,043-220-4552,,
20210101,20211231,오크밸리 3D 라이팅쇼 '소나타오브라이트',강원도 원주시 지정면 오크밸리1길 66,033-730-3146,37.4346459591,127.8177986180
20210101,20211231,옥탑방고양이,서울특별시 종로구 대학로10길 24,02-764-8760,37.5815918348,127.0035183141
20201216,20210115,온라인 거제대구수산물축제 2020,온라인개최,055-681-2233,34.8669130314,128.7296921278
20201008,20201030,온라인 경기곤충페스티벌,온라인개최,031-229-5905,37.2225202975,127.0429415014
20201106,20201108,온라인 고성가리비 수산물축제 2020,온라인개최,055-670-2454,,
20210118,20210205,온라인 영동곶감축제(장터) 2021,온라인개최,043-745-8916~8,36.1640606617,127.7819682486
20201017,20201017,온라인 용마폭포문화예술축제 2020,서울특별시 중랑구 용마산로 250-12,02-209-1823,37.5733998835,127.0891579669
20201127,20201211,온라인 제주감귤박람회 2020,제주특별자치도 서귀포시 남원읍 중산간동로 7415,064-710-3092~8,33.2874357176,126.6079678387
20201116,20201215,온라인 한려수도 굴축제 2020,경상남도 통영시 용남면 견내량로 22,055-645-4513,34.8888974036,128.4609982612
20210107,20210117,온라인으로 즐기는 지리산 산청곶감축제 2021,온라인개최,055-973-0085,35.2743485813,127.8365066809
20201018,20201024,온택트 강남페스티벌 2020,서울특별시 강남구 영동대로 513,02)3423-5532,37.5112648981,127.0594124394
20201124,20201231,온택트 궁중과 사대부가의 전통음식축제 2020,온라인개최,종로구청 관광과 02-2148-1858,37.5730868391,126.9796568411
20201031,20210214,온택트 대전 토토즐 페스티벌 2020,온라인개최,042-250-1274,36.3296133060,127.4332198383
20201030,20201101,온택트 영천 보현산 별빛축제 2020,경상북도 영천시 화북면 별빛로 681-32,054-330-6702,36.1402690623,128.9964752607
20201009,20201031,온택트 종로한복축제 2020,온라인개최,02-6263-1185,37.5707092077,126.9724103466
20210522,20210523,완주 프러포즈축제,전라북도 완주군 구이면 덕천전원길 232-58,063-290-2622,35.7260602293,127.1361790273
20211008,20211010,외솔한글한마당,울산광역시 중구 병영12길 15,052-716-5007,35.5748534232,129.3474827915
20201014,20201115,우리모두 전태일 문화제 2020,서울 종로구 종로5가 전태일다리/청계천로 일환,02-786-0610,,
20191026,20191027,우암문화제 2020,온라인개최,042-623-7211,36.3497420088,127.4584420365
20211110,20211112,울산 국제수소에너지전시회 및 포럼(H2WORLD),울산광역시 울주군 삼남읍 울산역로 255,052-255-1853,35.5556348578,129.1311799982
20211022,20211024,울산 쇠부리축제,울산광역시 북구 달천철장길 58,052-293-3500,35.6336492470,129.3294493702
20200912,20201128,울산 태화루 누각 상설공연 2020,울산광역시 중구 태화로 300,울산광역시청 문화예술과  052-229-3742,35.5533995305,129.3076757594
20201218,20201220,울산국제영화제 2020,울산광역시 남구 중앙로 201,052-299-7981,35.5395178265,129.3113286099
20211020,20211022,울산안전산업위크(SAFETY WEEK),울산광역시 울주군 삼남읍 울산역로 255,052-255-1852,35.5556348578,129.1311799982
20200813,20200816,울산태화강대숲납량축제 2020,울산광역시 중구 내오산로 67,052-266-7081,35.5533046338,129.2830667988
20201023,20201027,울주세계산악영화제 (UMFF : Ulju Mountain Film Festival) 2020,울산광역시 울주군 상북면 알프스온천5길 103-8,052-248-6450,35.5563585902,129.0676299774
20210515,20210606,원주 용수골꽃양귀비축제,강원도 원주시 판부면 서곡리 1632-2,033-764-4443,37.2868069456,127.9382587109
20200926,20200927,원주 청소년축제 2020,강원도 원주시 단구로 170,033-742-9997,37.3364513586,127.9461148905
20210501,20210530,원주한지문화제,강원도 원주시 한지공원길 151,033-734-4739,37.3343736211,127.9353798084
20210201,20211231,월미도 음악불꽃크루즈 2021,인천광역시 중구 월미문화로 21,1522-8905,37.4764857358,126.5984970903
20200918,20201025,웰컴대학로 2020,서울특별시 종로구 대학로12길 64,1577-3363,37.5812502100,127.0036294252
20201010,20201010,위댄스 'ON' 페스티벌 2020,온라인개최,02-758-2021 / 2014,,
20201030,20201101,유권자 정치페스티벌,경기도 수원시 권선구 수인로 126,031-296-0217,37.2749187509,126.9849119700
20200904,20200927,유니브엑스포 부산 2020,온라인개최,-,35.1564006288,129.0629164444
20201017,20201108,유성 국화전시회 2020,대전광역시 유성구 어은로 27,042-611-2446,36.3606806337,127.3576924160
20210429,20210530,윤봉길 평화축제,충청남도 예산군 덕산면 덕산온천로 183-5,041-338-9514,36.6874585328,126.6525108898
20211006,20211010,음성명작페스티벌 2021,충북 음성군 금왕읍 무극리 519-4,043-873-8940,36.9898653154,127.5882432031
20200829,20200829,응답하라! 그때 그 시절 DJ SHOW 2020,대구 중구 대봉동 6-11,053)255-5123,35.8603268485,128.6069813718
20201107,20201113,의정부 국제가야금축제 2020,경기도 의정부시 의정로 1,02-582-4470,37.7334330545,127.0340500917
20200807,20200816,의정부 음악극축제 2020,경기도 의정부시 의정로 1,031-828-5841,37.7334330545,127.0340500917
20200809,20200815,이럴때 이런음악 '해설이 있는 청소년 음악회' (영산아트홀) 2020,서울특별시 영등포구 여의공원로 101,02-332-5545,37.5293242775,126.9249130673
20200813,20200813,이럴때 이런음악 '해설이 있는 청소년 음악회' (예술의전당) 2020,서울특별시 서초구 남부순환로 2406,02-332-5545,37.4785900399,127.0107566806
20200926,20200926,이병주 하동 국제문학제 2020,경상남도 하동군 북천면 이명골길 14-28,055-882-2354,35.0972445341,127.8942978988
20201104,20201108,이순신장군배 국제요트대회 2020,경상남도 통영시 도남로 269-20,055)643-3335,34.8277704211,128.4338633445
20210320,20210404,이월드 별빛벚꽃시즌 '다시 벚꽃 피다',대구광역시 달서구 두류공원로 200,053-620-0001,35.8527158532,128.5665129257
20201121,20210301,이월드 별빛축제 2021,대구광역시 달서구 두류공원로 200,053-620-0001,35.8548822436,128.5648324581
20210417,20210502,이월드 봄꽃시즌 2 : 유채한 봄,대구광역시 달서구 두류공원로 200,053-620-0001,35.8548989086,128.5648463453
20210501,20210801,이월드 봄꽃시즌 3 : 수국아일랜드,대구광역시 달서구 두류공원로 200,053-620-0001,35.8548989086,128.5648463453
20210716,20210831,이월드 아쿠아판타지,대구광역시 달서구 두류공원로 200,053-620-0001,35.8548822436,128.5648324581
20210619,20210831,이월드 여름축제 <호러 어드벤처>,대구광역시 달서구 두류공원로 200,053-620-0001,35.8548822436,128.5648324581
20200905,20201130,이월드 인생꽃사진관 2020,대구광역시 달서구 두류공원로 200,053-620-0001,35.8548989086,128.5648463453
20201009,20201101,이월드 호러프리즌 : 몬스터어택 2020,대구광역시 달서구 두류공원로 200,053-620-0001,35.8548822436,128.5648324581
20200917,20200920,이천국제일루전페스티벌(IF) 2020,경기도 이천시 경충대로2697번길 306,031-645-1991,37.2779902404,127.4269440418
20201014,20201018,이천쌀문화축제 2020,경기도 이천시 경충대로2697번길 167-29,"031-644-4125, 4126",37.2772653437,127.4280217419
20200807,20200809,익산 문화재 야행 2020,전라북도 익산시 왕궁면 궁성로 666,063-859-5793,35.9715781122,127.0557186642
20200904,20200910,익산식품대전,온라인개최,-,35.9795610080,127.0829215832
20201015,20201022,인사전통문화축제 2020,서울특별시 종로구 인사동 33-2,보존회 02-737-7890,37.5715093818,126.9872978561
20201009,20201025,인제에서 꽃길만 걷자 2020,강원도 인제군 북면 십이선녀탕길 16,1577-8924,38.1856540989,128.3062095629
20210701,20210704,인천 개항장 문화재 야행,인천광역시 중구 신포로27번길 80,032-899-7426,37.4737642366,126.6215617279
20201022,20201115,인천과학대제전 2020,온라인개최,032-423-3303,37.3889717474,126.6463951460
20210826,20210829,인천국제디자인페어,인천광역시 연수구 센트럴로 123,070-4895-0879,37.3881746028,126.6455452451
20210630,20210701,인천국제해양포럼,인천광역시 연수구 센트럴로 123,02-2152-5085,37.3881662706,126.6455591327
20210708,20210711,인천여성영화제,인천광역시 미추홀구 미추홀대로 716,032-330-3080,37.4613528325,126.6806289059
20201005,20201105,일상속 333 챌린지! 2020,온라인개최,031-230-1693,,
20200918,20200921,임방울 국악제 2020,광주광역시 북구 북문대로 60,062-521-0731,37.4100356243,127.2494452622
20201009,20201025,자라섬국제재즈페스티벌 2020,온라인개최,031-581-2813~4,37.8171295389,127.5270471526
20200918,20200920,자문밖문화축제 2020,서울특별시 종로구 평창문화로 63,02-6365-1388,37.6063188791,126.9680902872
20210101,20211231,장승마을 빛 축제 2021,충청남도 공주시 사곡면 유구마곡사로 1231,041-841-5220~1,36.5572993817,127.0213533746
20200923,20200925,장애인문화예술축제 2020,경기도 가평군 가평읍 달전리 1-1,02-304-6211,37.8104943540,127.5354271394
20201016,20201018,전국생활문화축제 2020,전라남도 순천시 국가정원1호길 162-11,061-746-2917,34.9302732850,127.5106830806
20201029,20201029,전국장애인부모대회 2020,온라인개최,-,37.5972948238,126.9622299667
20200919,20200920,전남GT 2020,전라남도 영암군 삼호읍 삼포리 영암 코리아 인터내셔널 서킷,061-286-3142,34.7381625938,126.4156064506
20210901,20211031,전남국제수묵비엔날레,전라남도 목포시 남농로 102,061-280-5872,34.7917871569,126.4182854798
20200924,20201023,전남국제수묵비엔날레 특별기획전 2020,전라남도 목포시 번화로 18,061-280-5870,34.7860344247,126.3815027561
20210508,20210627,전라감영이 돌아왔다,전라북도 전주시 완산구 전라감영로 55,063-232-9938,35.8166417663,127.1459424630
20210515,20211030,전라북도 거리극축제 노상놀이야,전라북도 전주시 완산구 기린대로 99,063-236-1577,35.8183333748,127.1536778411
20201119,20201121,전북청소년영화제 2020,전라북도 전주시 완산구 전주객사3길 22,063-253-4045,35.8183942889,127.1427038165
20210601,20210630,전쟁기념관 현충일 온라인 그림그리기 대회,서울특별시 용산구 이태원로 29,"02-709-3143, 3145",37.5373270838,126.9784385198
20210522,20211010,전주 경기전 '수복청 상설공연',전라북도 전주시 완산구 태조로 44,063-232-9938,35.8162807559,127.1493699447
20210522,20211002,전주 한옥마을 경기전 '왕과의 산책',전라북도 전주시 완산구 태조로 44,063-232-9938,35.8162252063,127.1493588361
20210522,20211002,전주 한옥마을 '경기전 사람들',전라북도 전주시 완산구 태조로 44,063-232-9938,35.8162807559,127.1493699447
20210505,20210507,전주 한지문화축제,전라북도 전주시 완산구 현무1길 20,063-271-2503,35.8206802363,127.1482671501
20210429,20210508,전주국제영화제,전라북도 전주시 완산구 전주객사4길 46,063-288-5433,35.8200080116,127.1437203505
20210515,20210531,전주대사습놀이,전라북도 전주시 완산구 풍남문4길 27,063-252-6792,35.8148836206,127.1451981307
20211008,20211014,전주독서대전,전라북도 전주시 완산구 전주천동로 20,진도서관 책읽는도시팀)063-281-6514,35.8122508208,127.1586775554
20210618,20210619,전주문화재야행,전라북도 전주시 완산구 태조로 44,063-232-9937,35.8162807559,127.1493699447
20201106,20201107,전주사회혁신한마당 2020,전라북도 전주시 완산구 기린대로 209,063-273-9669,35.8253296814,127.1467699397
20210929,20211003,전주세계소리축제,전라북도 전주시 덕진구 소리로 31,063-232-8394,35.8553233330,127.1376921847
20210211,20210214,전주역사박물관 설날 세시풍속 한마당,전라북도 전주시 완산구 쑥고개로 259,063-228-6485,35.8012592666,127.0930836796
20210701,20210930,"전통의 전주, 살아있는 전라감영",전라북도 전주시 완산구 전라감영로 55,063-236-1577,35.8166417663,127.1459424630
20210414,20210421,젊은안무자창작공연,서울특별시 양천구 목동서로 225,"02-744-8066, 070-5213-0038/2806",37.5271541181,126.8707958384
20201019,20201023,정동문화축제 2020,서울특별시 중구 정동길 3,02-3701-1603,37.5681789032,126.9700161923
20201210,20201210,정보통신방송사업 온라인 성과보고회 2020,온라인개최,leejj1980@rainbowpr.co.kr,,
20210703,20210904,정선 아라리촌 놀이마당,강원도 정선군 정선읍 애산로 37,033-560-3016,37.3741912507,128.6715123775
20210402,20211127,정선아리랑극 아리아라리,강원도 정선군 정선읍 애산로 51,033-560-3017,37.3763882199,128.6715234213
20210729,20210731,정선인형극제,강원도 정선군 정선읍 애산로 165,아라리인형의집 033-563-9667,37.3880396656,128.6721063518
20211022,20211023,정약용 문화제,경기도 남양주시 조안면 다산로747번길 11,031)590-2474,37.5164880709,127.2992321483
20200926,20200927,정읍사문화제 2020,전라북도 정읍시 정읍사로 541,063-532-8880,35.5507170954,126.8615801738
20201107,20201108,제주 드라이브 잇쇼 (JEJU DRIVE EAT SHOW) 2020,제주특별자치도 제주시 서광로2길 24,064-711-1002,33.4963389152,126.5143129098
20210514,20210531,제주 설문대할망 페스티벌,제주특별자치도 제주시 조천읍 남조로 2023,제주돌문화공원 064-710-7731,33.4501574363,126.6584403292
20210406,20210408,제주 유채꽃축제,온라인개최,064-760-3946,33.3830799862,126.7363323235
20210522,20210620,제주 한림공원 부겐빌레아 축제,제주특별자치도 제주시 한림읍 한림로 300,064-796-0001,33.3902018773,126.2397419496
20210101,20211231,"제주 허브동산 ""별빛놀이"" 2021",제주특별자치도 서귀포시 표선면 돈오름로 170,064-787-7362~3,33.3291149802,126.8147712030
20210808,20210815,제주국제관악제,제주특별자치도 제주시 동광로 90,064-722-8704,33.5048855642,126.5377440121
20210211,20210214,제주민속촌 설맞이 민속체험행사,제주특별자치도 서귀포시 표선면 민속해안로 631-34,064-787-4501,33.3218273297,126.8418190282
20210607,20210630,제주민속촌 수국축제,제주특별자치도 서귀포시 표선면 민속해안로 631-34,064)787-4501,33.3213162956,126.8431022619
20201023,20201114,제주올레걷기축제 2020,제주특별자치도 서귀포시 중정로 22,064-762-2190,33.2474337936,126.5586785658
20210724,20210815,제주유리의성 별빛축제 야간개장,제주특별자치도 제주시 한경면 녹차분재로 462,064-772-7777,33.3146635422,126.2736712376
20210603,20210606,제주카페스타 (JEJU CAFESTA),제주특별자치도 서귀포시 중문관광로 224,064-711-1002,33.2412740186,126.4244958917
20201109,20201127,제주프린지페스티벌 2020,온라인개최,064-758-0332,33.5116345752,126.5225868431
20210906,20210909,제주해비치아트페스티벌,제주특별자치도 서귀포시 표선면 민속해안로 537,02-3019-5853~6,33.3215135225,126.8447465590
20200813,20200818,제천국제음악영화제 2020,충청북도 제천시 의병대로18길 1,"02-925-2242, 043-646-2242",37.0120124713,128.1760675223
20201016,20201017,제천의병제 2020,충청북도 제천시 봉양읍 공전리 476-1,-,37.0990785573,128.0860814109
20201127,20201227,조강평화문화제 2020,경기도 김포시 장기동 한강중앙공원,031-996-7643,37.6434621091,126.6752354240
20201008,20201111,조계사 국화향기 나눔전 2020,서울특별시 종로구 우정국로 55,02-768-8600,37.5733035136,126.9815038890
20210401,20210411,조치원봄꽃축제,온라인개최,044-301-5052,36.6046016278,127.2984771905
20210502,20210502,종묘대제,서울특별시 종로구 종로 157,02-3210-4803,37.5742897425,126.9944471257
20200808,20200808,주문진 어물전 축제 건맥파티 2020,강원도 강릉시 주문진읍 해안로 1748,033-661-9599,37.8912178732,128.8287935273
20210101,20211231,주문진 음악불꽃크루즈 2021,강원도 강릉시 주문진읍 해안로 1730,1522-8905,37.8895291758,128.8285935985
20201101,20201122,주안미디어문화축제 2020,온라인개최,032-880-7978,37.4591614034,126.6796568333
20200801,20201226,진도 토요민속여행 상설공연 2020,전라남도 진도군 진도읍 진도대로 7197,061-540-3073,34.4795198452,126.2698698980
20210427,20210429,진도신비의바닷길 온라인 축제,온라인개최,061-540-3407,34.4227524921,126.3489392759
20201120,20201122,진안고원 김치보쌈축제 2020,전라북도 진안군 진안읍 시장1길 16,063-433-6613,35.7926633285,127.4294401177
20210308,20210312,진안고원 운장산 고로쇠축제,온라인개최,063-430-2391~3 / 063-430-8384,35.9838408705,127.3889108687
20210501,20210505,진주 논개제,경상남도 진주시 남강로 626,055-746-5081,35.1904345642,128.0802485914
20200801,20201031,진주 무형문화재 토요상설공연 2020,경상남도 진주시 남강로 626,문화예술과 055-749-5312,35.1904345642,128.0802485914
20200101,20201231,창경궁 야간 상시관람 2020,서울특별시 종로구 창경궁로 185,02-762-9515,37.5807973206,126.9945052690
20210429,20210620,창덕궁 달빛기행,서울특별시 종로구 율곡로,02-3210-3503,37.5828248057,126.9913388341
20200911,20200925,창무국제공연예술제 2020,온라인개최,070-4264-8252,,
20210403,20210430,창원 고향의 봄 예술제,경상남도 창원시 의창구 중앙대로 181,055-267-5599,35.2300938039,128.6869944309
20200917,20201101,창원조각비엔날레 2020,경상남도 창원시 의창구 중앙대로 181,055-714-1978,35.2294826903,128.6831003428
20201030,20201101,처용문화제 2020,울산 남구 신정동 1513,052-270-9305,35.5504831920,129.3076730645
20200812,20200816,천문우주 페스티벌 2020,경기도 과천시 상하벌로 110,02-3677-1328,37.4383001830,127.0057860475
20210929,20211003,천안흥타령춤축제 [Cheonan World Dance Festival] 2021,충청남도 천안시 동남구 삼룡동 306-1,041-900-7392,36.7822983153,127.1671896816
20201024,20201108,청남대 국화축제 2020,충청북도 청주시 상당구 문의면 청남대길 646,043-257-5080,36.4622380327,127.4900889125
20210918,20210918,청년의 날 2021,서울특별시 송파구 올림픽로 424,02-780-3939,37.5209871362,127.1229758237
20210120,20211130,청도 프로방스 빛축제,경상북도 청도군 화양읍 이슬미로 272-23,054-372-5050,35.6841432611,128.7182098166
20200801,20200801,청소년 무대 예술 페스티벌 2020,대구광역시 달서구 공원순환로 201,053-651-5028,35.8451165839,128.5594887553
20201111,20201123,청소년을 위한 공연예술축제 2020,서울특별시 중구 세종대로19길 16,1833-6432,37.5667930530,126.9756046108
20211001,20211011,청원생명축제,충청북도 청주시 청원구 오창읍 미래지로 99,043-201-0252,36.7332499090,127.4073833117
20210908,20211017,청주공예비엔날레,충청북도 청주시 청원구 상당로 314,043-268-0256,36.6562491662,127.4923972539
20211008,20211009,청주문화재야행,충청북도 청주시 상당구 성안로,043-219-1015 / 043-219-1131,36.6329017813,127.4887982220
20200925,20200927,청주전통공예페스티벌 2020,온라인개최,070-4169-6543,36.6562491662,127.4923972539
20201029,20201031,청춘열전 흥 페스티벌 2020,온라인개최,02-6925-1255,37.5575514746,126.9205626669
20200926,20200927,청춘페스티벌 2020,서울특별시 마포구 한강난지로 162,02-722-9303,37.5628196780,126.8854129455
20191224,20200229,청평 슬로우파크 겨울송어축제 2020,경기도 가평군 청평면 청군로 70,031-584-0199,37.7497659835,127.4214031876
20200916,20200927,추석 농수특산물 서울장터 2020,온라인개최,02-542-2695,37.5665986816,126.9783710306
20210501,20211231,춘천 막국수닭갈비축제,강원 춘천시 삼천동 200-9,033-254-4347,,
20210505,20210523,춘천 애니타운 페스티벌 (CAF),강원도 춘천시 서면 박사로 854,033-245-6000,37.8930320971,127.6918410158
20210605,20210620,춘천 토이 페스티벌,강원도 춘천시 서면 박사로 854,033-245-6770,37.8930320971,127.6918410158
20210713,20210821,춘천공연예술제,강원도 춘천시 춘천로281번길 15,033-251-0545,37.8815871604,127.7430200289
20200814,20200830,춘천아트페스티벌 2020,강원도 춘천시 춘천로 112,033-251-0545,37.8729823203,127.7276939015
20210706,20211030,춘천연극제,강원도 춘천시 서부대성로 71,033-241-4345,37.8825368301,127.7312071874
20210529,20211223,춘천인형극제,강원도 춘천시 영서로 3017,033-242-8452,37.9216376309,127.7202320249
20200918,20200930,충남독서대전 2020,온라인개최,041-530-6603,36.7703884936,127.0056962280
20201022,20201026,충주국제무예액션영화제 2020,충청북도 충주시 남한강로 24,043-225-1095,36.9878796822,127.9055924945
20201224,20210221,칠갑산얼음분수축제 2021,충청남도 청양군 정산면 천장호길 175-11,041-942-0797~8,36.4094728367,126.9160529131
20201231,20210101,카운트다운 부산 - 바다 위로 희망 2021,온라인개최,-,,
20200626,20200628,케이펫페어 서울 2020,서울특별시 강남구 남부순환로 3104,02-6121-6396~8,37.4957363721,127.0719811806
20201102,20201130,코리아 먹켓 페스타 (KOREA MUK+KET FESTA) 2020,온라인개최,02-449-5009,37.4683111849,127.0390127336
20210114,20210228,코리아그랜드세일 2021,온라인개최,02-550-2533,37.5720426096,126.9848758397
20201224,20201227,키즈락 페스티벌,경기도 고양시 일산서구 킨텍스로 217-59,031-995-8178,37.6649608187,126.7434785815
20210202,20210203,탐라국입춘굿놀이 2021,온라인개최,064-758-0332,33.5133454804,126.5215257854
20201007,20201011,탐라문화제 2020,온라인개최,064-753-3287,33.5130456151,126.5279252356
20200929,20201108,태안 가을꽃 공원 2020,충청남도 태안군 안면읍 꽃지해안로 400,041-675-5533,36.5011689948,126.3367943161
20210101,20211231,태안 빛축제 2021,충청남도 태안군 남면 마검포길 200,041-675-9200,36.6151330244,126.2998807800
20210409,20210510,태안 세계튤립꽃박람회,충청남도 태안군 안면읍 꽃지해안로 400,041-675-5533,36.5011023351,126.3367804299
20210618,20210930,태안 수국 꽃 박람회,충청남도 태안군 남면 마검포길 200,041-675-9200,36.6164717773,126.3009584253
20210401,20210420,태안 수선화&루피너스 꽃 박람회,충청남도 태안군 남면 마검포길 200,041-675-9200,36.6151330244,126.2998807800
20201015,20201025,태화강국제설치미술제 2020,울산광역시 남구 북부순환도로 17,052-220-0611,35.5517322564,129.2653794980
20210109,20211218,토요명품공연,서울특별시 서초구 남부순환로 2364,02-580-3300,37.4776567975,127.0097651306
20201120,20201205,토요애 의령 농특산물 축제 2020,온라인개최,055-570-4110~4,35.3193292641,128.2843633787
20210326,20210404,통영 국제음악제,경상남도 통영시 큰발개1길 38,055-650-0400,34.8259957306,128.4400711845
20210709,20210718,통영연극예술축제,경상남도 통영시 남망공원길 29,055-645-6379,34.8451571899,128.4240026354
20200925,20210822,팀랩: 라이프,서울특별시 중구 을지로 281,-,37.5675991318,127.0099486810
20210104,20210214,파주 눈내리는 초리골 축제 2021,경기도 파주시 법원읍 초리골길 138-9,031-958-8880,37.8522416263,126.8906847990
20201222,20210228,파주 마장계곡 송어축제 2021,경기도 파주시 광탄면 마장리 421-1,031-962-6321 / 031-948-3933,37.7761447494,126.8799157350
20210101,20210214,파주송어축제 2021,경기도 파주시 광탄면 부흥로 194-42,1522-1531,37.8009083125,126.8678189133
20201127,20201129,파주장단콩축제 2020,경기도 파주시 문산읍 임진각로 164,"031-940-5281, 5288",37.8897734643,126.7417751478
20210505,20210509,파주출판도시 어린이책잔치,온라인개최,031-955-0062,37.7086519413,126.6866936546
20210101,20211231,판타스틱(Fanta-Stick),서울특별시 종로구 대학로 146 석정홀딩스,02-3143-5959,37.5843109371,127.0020489267
20201030,20201101,팔공산 산중전통장터 승시축제 2020,온라인개최,053-980-7985,35.9864587718,128.7022944448
20200817,20201115,팜파스 축제 2020,충청남도 태안군 남면 연꽃길 70,041-675-0656,36.6865664156,126.2973902397
20201016,20201122,퍼스트가든 국화축제 2020,경기도 파주시 탑삭골길 260,031-957-6861,37.7326982908,126.7949886250
20210101,20211231,퍼스트가든 빛축제 - 별빛이 흐르는 정원 2021,경기도 파주시 탑삭골길 260,031-957-6861,37.7326399636,126.7949386312
20200901,20200915,페스티벌31 2020,온라인개최,031-239-1020,37.1161456903,126.6833548427
20210424,20210912,평강랜드 수국축제,경기도 포천시 영북면 우물목길 171-18,031-5332-1779,38.0500344386,127.3062049175
20210918,20211121,평강랜드 핑크뮬리 축제,경기도 포천시 영북면 우물목길 171-18,031-532-1779,38.0500344386,127.3062049175
20210617,20210622,평창국제평화영화제,강원 평창군 대관령면 횡계리 707,033-244-5500,37.6712604185,128.7071418322
20210728,20210807,평창대관령음악제,강원도 평창군 대관령면 솔봉로 325,033-240-1363,37.6646525475,128.6915128866
20200807,20200808,평창평화뮤직페스티벌 2020,강원도 평창군 대관령면 올림픽로 220,070-4353-0257,37.6669053592,128.7067558891
20201106,20201115,평화누리길 비대면 걷기여행 2020,경기도 김포시 대곶면 대명항1로 110-36,031-956-8310,37.6407572428,126.5393173758
20201010,20201031,포항스틸아트페스티벌 2020,경상북도 포항시 북구 두호동 1015-6,054-289-7853~7,36.0623546491,129.3819991563
20200819,20200830,품앗이공연예술축제 2020,경기도 화성시 우정읍 이화뱅곳길 22,031-358-7587,37.0397676497,126.7980354195
20210401,20211231,플라잉(FLYing),경상북도 경주시 경감로 614,054-775-0815,35.8315650725,129.2892916998
20210820,20210821,피란수도 부산 문화재 야행,부산광역시 서구 임시수도기념로,070-5154-9944,35.1032530039,129.0196549929
20200927,20201025,하남이성산성문화축제 2020,온라인개최,031-790-7979,37.5447470040,127.2068036316
20200821,20200927,하동 리버사이드 워터파크 2020,경상남도 하동군 하동읍 광평리 49번지,010-3526-8045,35.0582575579,127.7533973843
20210515,20210523,하동 야생차문화축제,경상남도 하동군 화개면 쌍계로 571-25,055-880-2052~4,35.2325139254,127.6507963337
20201114,20201122,하동악양대봉감축제 2020,경상남도 하동군 악양면 평사리 평사리공원,악양면청년회 055-883-5530,35.1467380772,127.6851177601
20210730,20210815,하이브리드 한강나이트워크42K,서울특별시 영등포구 여의동로 280,070-4705-2008,37.5277830039,126.9368897969
20200101,20201231,하회별신굿탈놀이 상설공연 2020,경상북도 안동시 풍천면 하회종가길 3-15,054-854-3664,36.5409451627,128.5243722237
20191103,20210203,한-러 수교 30주년 기념 디지털 아트 동화 특별전 2020,제주특별자치도 제주시 애월읍 애월해안로 516-7,064-799-7578,33.4773135604,126.3592296033
20201030,20201101,한-아세안 공예장터 2020,부산광역시 수영구 구락로123번길 20,051-775-2026,35.1762660444,129.1156002056
20210116,20210221,한·아세안 미식만찬 2021,부산광역시 해운대구 좌동로 162,051-775-2026,35.1751757315,129.1820750100
20201024,20201025,한국국제걷기대회 2020,서울특별시 송파구 충민로 66,02-2274-7077,37.4776699781,127.1249713174
20200925,20200927,한국국제아트페어 2020,서울특별시 강남구 영동대로 513,02-733-3706~8,37.5118092746,127.0591318945
20201010,20201129,한국문화축제 2020,온라인개최,02-584-8173,,
20201201,20201231,한국민속예술제 2020,온라인개최,02-580-3278,36.4666363013,127.1075869625
20210424,20210620,한국민속촌 꽃놀이,경기도 용인시 기흥구 민속촌로 90,031-288-0000,37.2594535228,127.1205723175
20210403,20210620,한국민속촌 웰컴투조선,경기도 용인시 기흥구 민속촌로 90,031-288-0000,37.2593868634,127.1205445440
20210211,20210301,한국민속촌 정월맞이행사,경기도 용인시 기흥구 민속촌로 90,031-288-0000,37.2593868634,127.1205445440
20210501,20211031,한국민속촌 '달빛을 더하다',경기도 용인시 기흥구 민속촌로 90,031-288-0000,37.2594535228,127.1205723175
20191130,20200426,한국민속촌 '추억의 그때 그 놀이' 2020,경기도 용인시 기흥구 민속촌로 90,031-288-2933,37.2593868634,127.1205445440
20200909,20200911,한국음식관광박람회 2020,서울특별시 서초구 강남대로 27,02-737-2210,37.4686111452,127.0387710802
20210101,20211231,한국의집 전통예술공연 KOREA 심청,서울특별시 중구 퇴계로36길 10,02-2266-9101~3,37.5601774962,126.9945752914
20201118,20201119,한국해사주간(Korea Maritime Week) 2020,서울특별시 강남구 언주로 640,02-6275-0226,37.5141113691,127.0359728259
20210414,20210430,한라산 청정 고사리 축제,제주특별자치도 서귀포시 남원읍 태위로 695,"760-4181~2, 4126",33.2799383418,126.7207249076
20201106,20201129,한림공원 국화축제 2020,제주특별자치도 제주시 한림읍 한림로 300,064-796-0001,33.3897241270,126.2381087692
20210206,20210228,한림공원 매화축제 2021,제주특별자치도 제주시 한림읍 한림로 300,064-796-0001,33.3902018773,126.2397419496
20210601,20210627,한림공원 수국축제,제주특별자치도 제주시 한림읍 한림로 300,064-796-0001~4,33.3902018773,126.2397419496
20210701,20210831,한림공원 연꽃축제,제주특별자치도 제주시 한림읍 한림로 300 한림공원,064-796-0001,33.3902018773,126.2397419496
20210325,20210411,한림공원 튤립축제,제주특별자치도 제주시 한림읍 한림로 300,064-796-0001,33.3897241270,126.2381087692
20211006,20211010,한성백제문화제 「2021 대백제전」,서울특별시 송파구 올림픽로 424,02-2147-2800,37.5194456386,127.1224425827
20201009,20201010,한양도성문화제 2020,서울특별시 중구 회현동1가 100-267,070-7462-1106,37.5539085600,126.9823071428
20200801,20200815,한여름 밤의 신정호 별빛축제 2020,충청남도 아산시 신정로 616,041-532-1820,36.7715352005,126.9839592682
20200814,20200817,한여름밤의 축제 '자원관이 살아있다' 2020,경상북도 상주시 도남2길 137,054-530-0771,36.4456093881,128.2554321902
20210905,20210905,한일축제한마당 in Seoul,온라인개최,02-702-7775,37.5117592813,127.0591874466
20201019,20201109,"함께 걷자, Red Walker 2020",비대면개최,032-810-1315~8,,
20210423,20210502,함안수박 온라인축제,경상남도 함안군 가야읍 함안대로 755,031-792-6687,35.2940508357,128.3987956928
20210910,20211010,함양산삼항노화엑스포 2021,경남 함양군 교산리 1047-1 / 경남 함양군 병곡면 광평리 663,055-964-3382,35.5240350245,127.7212158272
20210313,20210314,해남 땅끝매화축제,온라인개최,061-530-5158,34.6245261535,126.4633855169
20201017,20201017,해남 초의문화제 2020,전라남도 해남군 해남읍 군청길 4,061-535-0986,34.5735424396,126.5992608873
20210505,20210509,해운대 모래작품 전시회,부산광역시 해운대구 중동1411-23,051-749-4061~3,35.1595632252,129.1623632643
20210611,20210620,해운대 북극곰 축제,부산광역시 해운대구 해운대해변로 280,051-731-1509,35.1595354549,129.1626049105
20210215,20210328,해운대 빛축제 2021,"부산광역시 해운대구 해운대해수욕장, 구남로 일원",051-749-4061~3,35.1600603681,129.1610994719
20210703,20210831,허브아일랜드 라벤더축제,경기도 포천시 신북면 청신로947번길 35,031-535-6494,37.9659160606,127.1316789055
20210101,20211231,허브아일랜드 불빛동화축제 2021,경기도 포천시 신북면 청신로947번길 35,031-535-6494,37.9659160606,127.1316789055
20201128,20201129,헬로메이커 코리아 2020,부산광역시 기장군 기장읍 동부산관광6로 59,070-7327-0611,35.2046063384,129.2127048692
20201212,20201218,현대모비스 기부런 2020,온라인개최,070-7575-2351~2,,
20210703,20210904,"호남제일성, 전라감영 역사의 울림",전라북도 전주시 완산구 동문길 115-2,063-232-1902,35.8177277863,127.1478144896
20200818,20200827,호텔 페르소나 2020,경기도 수원시 팔달구 신풍로 68,010-8255-8978,37.2870845255,127.0138840002
20211021,20211024,홈라이프스타일쇼,광주광역시 서구 상무누리로 30,0662-611-3501~3,35.1467180358,126.8405588979
20211007,20211009,홈케어·재활·복지 전시회,서울특별시 강남구 영동대로 513,02-881-5151,37.5117148467,127.0594429796
20210416,20210530,홍가시나무 천국 페스티벌,충청남도 태안군 남면 연꽃길 70,041-675-0656,36.6865664156,126.2973902397
20210123,20210331,홍성 남당항 새조개 온라인축제 2021,온라인개최,041-634-0104,36.5394807577,126.4703451469
20210514,20210516,홍성 역사인물축제 2021,충청남도 홍성군 홍성읍 아문길 27,041-630-1227~8,36.6013102581,126.6607707762
20210416,20210509,홍천산나물축제,강원도 홍천군 서면 어유포리 317-4,033-439-5853,37.7028931641,127.6959601437
20210723,20210801,홍천찰옥수수축제,강원도 홍천군 홍천읍 설악로 1265,033-439-5853,37.6682389118,127.8484556568
20210501,20210522,화성행궁 생생문화재 <달달한 행궁로망스>,경기도 수원시 팔달구 정조로 825,031-290-3574,37.2819295766,127.0144035414
20210501,20211031,화성행궁 야간개장,경기도 수원시 팔달구 정조로 825,031-290-3600,37.2819295766,127.0144035414
20200911,20200913,황순원문학제 2020,경기도 양평군 서종면 소나기마을길 24,031-773-2299,37.5945387829,127.3781032925
20210508,20210508,황토현동학농민혁명기념제,전라북도 정읍시 덕천면 하학리 산3-5,063-538-1894,35.6336515335,126.8270977887
20201024,20201108,회남재 숲길 걷기 2020,경상남도 하동군 청암면 삼성궁길 2,055-880-2052~4,35.2387419579,127.7054469178
20201015,20201017,후용페스티벌 2020,강원도 원주시 문막읍 비야동길 11,033-732-0827,37.2739697999,127.8022713500
20201113,20210131,휴애리 동백축제 2020,제주특별자치도 서귀포시 남원읍 신례동로 256,064-732-2114,33.3085171454,126.6344317363
20210219,20210228,휴애리 매화축제,제주특별자치도 서귀포시 남원읍 신례동로 256,064-732-2114,33.3085171454,126.6344317363
20200918,20201115,휴애리 핑크뮬리 축제 2020,제주특별자치도 서귀포시 남원읍 신례동로 256,064-732-2114,33.3085171454,126.6344317363
20210401,20210912,휴애리유럽수국축제,제주특별자치도 서귀포시 남원읍 신례동로 256,064-732-2114,33.3085171454,126.6344317363
20200801,20200830,힘내라 대한민국! 공연여행 2020,강원도 춘천시 남산면 남이섬길 1,070-4367-0559,37.7901798790,127.5261480243
20190831,20210331,'2019나미콩쿠르' 수상작 展 2020,강원도 춘천시 남산면 남이섬길 1,031-580-8193,37.7901798790,127.5261480243
20201017,20201031,1890 남산골야시장 2020,서울특별시 중구 퇴계로34길 28,02-2266-6924,37.5584387906,126.9935365470
20210501,20210516,2021남이섬 세계책나라축제,강원도 춘천시 남산면 남이섬길 1,"031-580-8193, 8015",37.7901159965,127.5261035858
20210505,20210508,2021 양구 곰취축제,강원도 양구군 양구읍 박수근로 366-33,033-480-2229,38.1061821797,127.9824470365
20210505,20210509,2021 지평선 추억의 보리밭축제,전라북도 김제시 진봉면 진봉1길 15-3,진봉면사무소 063-540-4781,35.8592081580,126.7661390981
20210522,20210529,2021 Let's DMZ - DMZ콘서트,경기도 수원시 팔달구 효원로307번길 20,onhongbo@gmail.com,37.2619323007,127.0372659151
20210501,20210516,2565부산연등축제,부산광역시 부산진구 중앙대로 818,051-867-0501,,
20210410,20210419,4·19혁명국민문화제,온라인개최,02-901-6206,37.6483786128,127.0090436907
20210301,20211107,9.81파크; X리그 2021 정규시즌,제주특별자치도 제주시 애월읍 천덕로 880-24,064-1899-9810,33.3900649983,126.3665198188
20201022,20201023,ASCOM BLUES FESTIVAL 2020,인천광역시 부평구 길주로 547,010-5798-6577,37.5076454255,126.7230681898
20210909,20210916,DMZ국제다큐멘터리영화제,경기도 고양시 일산동구 중앙로 1036,1899-8318,37.6432308377,126.7896749719
20201218,20210630,Delight Seoul 2021,서울특별시 종로구 인사동길 49,02-3444-2208,37.5745200760,126.9835703327
20200817,20200823,EBS 국제다큐영화제 2020,온라인개최,1588-1580,37.6617058398,126.7545998786
20201022,20201025,Hello! 과학마을축제 2020,온라인개최,"042-861-5005, 042-861-3502",36.3842168221,127.3572695931
20201128,20201128,JAZZ IS BACK in 김광석거리 2020,대구 중구 대봉동 6-11,053-255-5123,35.8603268485,128.6069813718
20210716,20210718,K-일러스트레이션페어 부산 2021,부산광역시 해운대구 APEC로 55,02-761-2512,35.1691366711,129.1363402640
20210408,20210411,K-일러스트레이션페어 서울 2021,서울특별시 강남구 영동대로 513,02-761-2512,37.5117148467,127.0594429796
20210716,20210718,K-핸드메이드페어 부산 2021,부산광역시 해운대구 APEC로 55,02-761-2512,35.1690700054,129.1359569660
20211209,20211212,K-핸드메이드페어 2021,서울특별시 강남구 영동대로 513,02-761-2512,37.5118092746,127.0591318945
20201219,20201227,K-MAS 라이브 마켓 2020,서울특별시 종로구 삼청로 1,02-2656-9900,37.5767586303,126.9794289801
20200919,20200920,KB RAPBEAT FESTIVAL(KB 랩비트 페스티벌) 2020,경기도 과천시 광명로 181,02-6012-7135,37.4338981534,127.0190599639
20201112,20201114,KOREA 월드푸드 챔피언십 2020,서울특별시 서초구 강남대로 27,"02-802-7666, 7669",37.4672779825,127.0396460387
20211029,20211031,KYMF 대한민국청소년미디어대전,서울특별시 용산구 한강대로 255,02-795-8000(내선2번),37.5410515470,126.9726361655
20210520,20211031,Let's DMZ 평화예술제,경기도 파주시 문산읍 임진각로 164,letsdmzpaf@gmail.com,37.8897734643,126.7417751478
20201023,20201025,MAMF(맘프) 2020,경상남도 창원시 의창구 사화로18번길 30,055-277-8779,35.2548756889,128.6076923566
20210525,20210613,MODAFE 2021 (제40회 국제현대무용제),서울특별시 종로구 대학로10길 15-15 해안빌딩 602호,02-763-5351,37.5825333800,127.0028600144
20200907,20200909,NDA International Festival 2020,온라인개최,010-6564-0830,,
20210628,20210629,"NextRise 2021, Seoul",서울특별시 강남구 영동대로 513,070-4640-5994,37.5117148467,127.0594429796
20201107,20201213,PRECTXE : Digital Art Festival 2020,경기도 부천시 삼작로 53,070-4238-2432,37.5219528871,126.7676748319
20201106,20201115,SF2020,경기도 과천시 상하벌로 110,sfsciencefestival@gmail.com,37.4383001830,127.0057860475
20210618,20210718,SUMMER FLOWER,경기도 안성시 공도읍 대신두길 28,031-8053-7979,36.9920801848,127.1944119888
20201103,20201123,SW교육 페스티벌 2020,온라인개최,02-559-8090,36.4968938835,127.2615501080
20210929,20211003,[명예대표축제]김제 지평선축제,온라인개최,063-540-3035~3038,35.7539938456,126.8529146250
20210723,20210801,[명예대표축제]보령머드축제 2021,충청남도 보령시 대천해수욕장,041-930-0891,36.3155293984,126.5108362552
20200925,20201004,[명예대표축제]안동국제탈춤페스티벌 2020,경상북도 안동시 육사로 239,054-841-6397~8,36.5605495777,128.7308755359
20201001,20201011,[명예대표축제]진주 남강유등축제 2020,경상남도 진주시 남강로 626,055-755-9111,35.1897457534,128.0802763856
20211001,20211010,[명예축제]금산 인삼축제 2021,충청남도 금산군 금산읍 인삼광장로 30,041-750-4147,36.1002101508,127.5012171957
20211015,20211017,[문화관광축제]광안리어방축제,부산광역시 수영구 광안해변로 219,051-610-4062,35.1516077265,129.1173479525
20201008,20201011,[문화관광축제] 강릉커피축제 2020,강원도 강릉시 수리골길 102,033-647-6802,37.7798487635,128.8968825061
20211006,20211010,[문화관광축제] 대구약령시한방문화축제,대구광역시 중구 남성로 51-1,053-253-4729,35.8673230099,128.5923963501
20200924,20200927,[문화관광축제] 밀양 아리랑대축제 2020,경상남도 밀양시 중앙로 324,055-359-4500,35.4921350361,128.7552590901
20200801,20200809,[문화관광축제] 봉화은어축제 2020,경상북도 봉화군 봉화읍,054-674-3053,36.8880621974,128.7343545531
20200907,20200927,[문화관광축제] 산청한방약초축제 2020,온라인개최,055-970-6601~5,35.4196966993,127.8718053038
20201009,20201011,[문화관광축제] 서산해미읍성축제 2020,충청남도 서산시 해미면 남문2로 143,041-660-2679,36.7128788110,126.5488612421
20201016,20201018,[문화관광축제] 순창장류축제 2020,전라북도 순창군 순창읍 민속마을길 6-3,"063-652-9301, 063-650-1611",35.3753190513,127.1133178783
20210428,20211031,[문화관광축제] 시흥갯골축제,경기도 시흥시 시청로 20,031-310-6749,37.3802283072,126.8029477968
20200923,20200927,[문화관광축제] 안성맞춤 남사당 바우덕이축제 2020,경기도 안성시 보개면 남사당로 198,031-678-2511~5,37.0337719111,127.3111058455
20201015,20201018,[문화관광축제] 여주오곡나루축제 2020,경기도 여주시 신륵사길 13,031-881-9692~5,37.2995419274,127.6557838412
20201009,20201011,[문화관광축제] 연천 구석기축제,경기도 연천군 전곡읍 양연로 1510,031-839-2561~4,38.0122815870,127.0611506837
20211007,20211010,[문화관광축제] 영산강문화제 2021,광주광역시 남구 승촌보길 90,062-362-7670,35.0660063695,126.7611512602
20210401,20210416,[문화관광축제] 온라인 영암왕인문화축제,온라인개최,061-470-2347,34.7566140519,126.6304148351
20201106,20201115,[문화관광축제] 울산옹기축제 2020,울산광역시 울주군 온양읍 외고산길 23,052-227-4961,35.4322848446,129.2801648931
20200908,20200913,[문화관광축제] 원주 다이내믹댄싱카니발 2020,강원도 원주시 단구로 170,"033-763-9401, 9402",37.3364513586,127.9461148905
20211021,20211024,[문화관광축제] 음성 품바축제,충청북도 음성군 음성읍 설성공원길 28,043-873-2241,36.9327654263,127.6910022374
20201016,20201017,[문화관광축제] 인천 펜타포트 락 페스티벌 2020,인천광역시 연수구 센트럴로 350,1899-7188,37.4078332011,126.6324847807
20211007,20211010,[문화관광축제] 임실N치즈축제 2021,전라북도 임실군 성수면 도인2길 50,063-643-3900,35.6328486749,127.3012056927
20200801,20200809,[문화관광축제] 정남진장흥물축제 2020,전라남도 장흥군 장흥읍 장흥로 21,"061-860-0224, 0380",34.6817603880,126.9067839971
20200917,20200920,[문화관광축제] 정선아리랑제 2020,강원도 정선군 정선읍 봉양리 112,033-563-2646,37.3776490698,128.6654905918
20210308,20210314,[문화관광축제] 제주들불축제,제주 제주시 애월읍 봉성리 산59-8,064-728-2751~6,33.3674368137,126.3581488312
20201008,20201011,[문화관광축제] 진안 홍삼축제 2020,전라북도 진안군 진안읍 마이산로 160,063-430-2391~3,35.7732125289,127.4162695779
20201028,20201101,[문화관광축제] 청송사과축제 2020,경상북도 청송군 청송읍 금월로 269,054-873-3686,36.4331924602,129.0555199169
20211013,20211017,[문화관광축제] 추억의 충장축제 2021,광주광역시 동구 서남로 1,062-608-2421~4,35.1454973445,126.9231294053
20210523,20211130,[문화관광축제] 춘천마임축제,강원도 춘천시 전역,033-242-0585,37.8766011603,127.7178558012
20210812,20210821,[문화관광축제] 통영한산대첩축제,경상남도 통영시 통영해안로 328,055-644-5222,34.8438295639,128.4241721001
20210611,20210613,[문화관광축제] 한산모시문화제,충청남도 서천군 한산면 충절로 1089,041-950-4256,36.0799251950,126.7987054614
20201015,20201030,[문화관광축제] 횡성한우축제 2020,온라인개최,1522-1099,37.4981056564,127.9871481157
